<?xml version="1.0" encoding="UTF-8" standalone="yes"?>
<gpx version="1.1"
 creator="DeLorme Earthmate PN-Series GPS - http://www.delorme.com"
 xmlns:xsi="http://www.w3.org/2001/XMLSchema-instance"
 xmlns="http://www.topografix.com/GPX/1/1"
 xmlns:delorme="http://www.delorme.com/schema/gpx_extension"
 xsi:schemaLocation="http://www.topografix.com/GPX/1/1 http://www.topografix.com/GPX/1/1/gpx.xsd
 http://www.groundspeak.com/cache/1/0 http://www.groundspeak.com/cache/1/0/cache.xsd
 http://www.delorme.com/schema/gpx_extension http://www.delorme.com/schema/gpx_extension/DeLormeGPXSchema1_1.xsd">
<metadata>
	<name>SOS 2016 Scouting</name>
	<extensions>
		<delorme:waypointGUID>2c52d422-1dd2-11b2-8af6-504244454a4a</delorme:waypointGUID>
		<delorme:defaultsymbol>1</delorme:defaultsymbol>
		<delorme:filestats>
			<delorme:wptcount>283</delorme:wptcount>
			<delorme:geocachecount>0000</delorme:geocachecount>
		</delorme:filestats>
	</extensions>
</metadata>
<wpt lat="37.301506996" lon="-113.961580038">
	<ele>1226.855469</ele>
	<time>2016-05-09T19:01:00Z</time>
	<name>101 - ARPU</name>
	<sym>Red Map Pin</sym>
	<extensions>
		<delorme:objectid>92cee24d-396f-44a3-a96f-f019b4213c18</delorme:objectid>
		<delorme:pnsymbol>1</delorme:pnsymbol>
	</extensions>
</wpt>
<wpt lat="39.012565970" lon="-113.261538029">
	<ele>1466.807251</ele>
	<time>2016-05-09T19:01:00Z</time>
	<name>102 - CHASTE</name>
	<sym>Red Map Pin</sym>
	<extensions>
		<delorme:objectid>e2770ed7-c752-413b-90db-e9fafb435660</delorme:objectid>
		<delorme:pnsymbol>1</delorme:pnsymbol>
	</extensions>
</wpt>
<wpt lat="38.865911007" lon="-113.266412973">
	<ele>1524.430786</ele>
	<time>2016-05-09T19:01:00Z</time>
	<name>103 - ACHY</name>
	<sym>Red Map Pin</sym>
	<extensions>
		<delorme:objectid>1819b780-0eaa-4a35-aafe-04fb455b22e5</delorme:objectid>
		<delorme:pnsymbol>1</delorme:pnsymbol>
	</extensions>
</wpt>
<wpt lat="37.938086033" lon="-113.778632045">
	<ele>1668.554932</ele>
	<time>2016-05-09T19:01:00Z</time>
	<name>104 - SPHGRO</name>
	<sym>Red Map Pin</sym>
	<extensions>
		<delorme:objectid>de820f60-8fe0-464e-80f4-63839e330e0e</delorme:objectid>
		<delorme:pnsymbol>1</delorme:pnsymbol>
	</extensions>
</wpt>
<wpt lat="39.274283051" lon="-113.130712032">
	<ele>1518.055176</ele>
	<time>2016-05-09T19:01:00Z</time>
	<name>106 - CHASTE</name>
	<sym>Red Map Pin</sym>
	<extensions>
		<delorme:objectid>20589d61-0452-4b97-a1ae-cd55dc338525</delorme:objectid>
		<delorme:pnsymbol>1</delorme:pnsymbol>
	</extensions>
</wpt>
<wpt lat="37.669188976" lon="-113.816313028">
	<ele>1743.434814</ele>
	<time>2016-05-09T19:01:00Z</time>
	<name>107 - HECO</name>
	<sym>Red Map Pin</sym>
	<extensions>
		<delorme:objectid>ad794c27-e526-4d53-8bb2-653b56fb0d6b</delorme:objectid>
		<delorme:pnsymbol>1</delorme:pnsymbol>
	</extensions>
</wpt>
<wpt lat="38.616662025" lon="-112.717753053">
	<ele>1722.314697</ele>
	<time>2016-05-09T19:01:00Z</time>
	<name>108 - ELYELY</name>
	<sym>Red Map Pin</sym>
	<extensions>
		<delorme:objectid>141e32f0-e00d-4a25-938e-0bd00310b6b3</delorme:objectid>
		<delorme:pnsymbol>1</delorme:pnsymbol>
	</extensions>
</wpt>
<wpt lat="38.705293059" lon="-113.293944955">
	<ele>1426.568115</ele>
	<time>2016-05-09T19:01:00Z</time>
	<name>109 - SPHGRO</name>
	<sym>Red Map Pin</sym>
	<extensions>
		<delorme:objectid>6a3fc740-828a-47ad-8e8c-82cfb5e2e2a5</delorme:objectid>
		<delorme:pnsymbol>1</delorme:pnsymbol>
	</extensions>
</wpt>
<wpt lat="38.705293059" lon="-113.293944955">
	<ele>1426.568115</ele>
	<time>2016-05-09T19:01:00Z</time>
	<name>110 - ELYELY</name>
	<sym>Red Map Pin</sym>
	<extensions>
		<delorme:objectid>b1af1ccc-96c5-4682-8c63-2c3c02978abf</delorme:objectid>
		<delorme:pnsymbol>1</delorme:pnsymbol>
	</extensions>
</wpt>
<wpt lat="38.747151017" lon="-113.692459941">
	<ele>1795.110962</ele>
	<time>2016-05-09T19:01:00Z</time>
	<name>111 - HESCOM</name>
	<sym>Red Map Pin</sym>
	<extensions>
		<delorme:objectid>06c00fea-c95e-4ddf-bf19-96d0697c2896</delorme:objectid>
		<delorme:pnsymbol>1</delorme:pnsymbol>
	</extensions>
</wpt>
<wpt lat="38.507112980" lon="-113.517567039">
	<ele>1820.156616</ele>
	<time>2016-05-09T19:01:00Z</time>
	<name>112 - HESCOM</name>
	<sym>Red Map Pin</sym>
	<extensions>
		<delorme:objectid>0c3caa9f-7b6d-463c-b39d-e0eaa71a7b25</delorme:objectid>
		<delorme:pnsymbol>1</delorme:pnsymbol>
	</extensions>
</wpt>
<wpt lat="39.049831986" lon="-113.252347946">
	<ele>1462.721558</ele>
	<time>2016-05-09T19:01:00Z</time>
	<name>113 - ACHY</name>
	<sym>Red Map Pin</sym>
	<extensions>
		<delorme:objectid>0099aa63-5a53-4d11-bd19-fc78382021ba</delorme:objectid>
		<delorme:pnsymbol>1</delorme:pnsymbol>
	</extensions>
</wpt>
<wpt lat="40.912963986" lon="-113.763393044">
	<ele>1355.747681</ele>
	<time>2016-05-09T19:01:00Z</time>
	<name>114 - PLUJAM</name>
	<sym>Red Map Pin</sym>
	<extensions>
		<delorme:objectid>49fd2709-295e-44bf-9ca0-d2cf75403760</delorme:objectid>
		<delorme:pnsymbol>1</delorme:pnsymbol>
	</extensions>
</wpt>
<wpt lat="37.624698997" lon="-113.780346990">
	<ele>1770.332642</ele>
	<time>2016-05-09T19:01:00Z</time>
	<name>115 - SPHPAR</name>
	<sym>Red Map Pin</sym>
	<extensions>
		<delorme:objectid>82994e8e-9fed-4347-910c-c5f693a70f93</delorme:objectid>
		<delorme:pnsymbol>1</delorme:pnsymbol>
	</extensions>
</wpt>
<wpt lat="37.661018014" lon="-113.810379028">
	<ele>1743.077271</ele>
	<time>2016-05-09T19:01:00Z</time>
	<name>116 - PLAPAT</name>
	<sym>Red Map Pin</sym>
	<extensions>
		<delorme:objectid>8cd133b9-f95d-46f4-bca8-ca198f64ebad</delorme:objectid>
		<delorme:pnsymbol>1</delorme:pnsymbol>
	</extensions>
</wpt>
<wpt lat="37.940281987" lon="-113.072322965">
	<ele>1731.465210</ele>
	<time>2016-05-09T19:01:00Z</time>
	<name>117 - LINLEW</name>
	<sym>Red Map Pin</sym>
	<extensions>
		<delorme:objectid>99b5d53d-81f5-4649-a414-868c412585f9</delorme:objectid>
		<delorme:pnsymbol>1</delorme:pnsymbol>
	</extensions>
</wpt>
<wpt lat="38.053099036" lon="-113.442082047">
	<ele>1595.108276</ele>
	<time>2016-05-09T19:01:00Z</time>
	<name>118 - ARPU</name>
	<sym>Red Map Pin</sym>
	<extensions>
		<delorme:objectid>3da5d7b3-b867-4182-acd5-e6d415387e58</delorme:objectid>
		<delorme:pnsymbol>1</delorme:pnsymbol>
	</extensions>
</wpt>
<wpt lat="37.938086033" lon="-113.778632045">
	<ele>1668.554932</ele>
	<time>2016-05-09T19:01:00Z</time>
	<name>119 - ARPU</name>
	<sym>Red Map Pin</sym>
	<extensions>
		<delorme:objectid>f0fe1afa-8575-42cd-b523-e891b95937d0</delorme:objectid>
		<delorme:pnsymbol>1</delorme:pnsymbol>
	</extensions>
</wpt>
<wpt lat="38.235661030" lon="-113.206717014">
	<ele>1600.663452</ele>
	<time>2016-05-09T19:01:00Z</time>
	<name>120 - SPHGRO</name>
	<sym>Red Map Pin</sym>
	<extensions>
		<delorme:objectid>a128ae60-7d7c-45e8-83b8-2d7e283b68cc</delorme:objectid>
		<delorme:pnsymbol>1</delorme:pnsymbol>
	</extensions>
</wpt>
<wpt lat="38.698472977" lon="-113.099303007">
	<ele>1579.037231</ele>
	<time>2016-05-09T19:01:00Z</time>
	<name>121 - ARPU</name>
	<sym>Red Map Pin</sym>
	<extensions>
		<delorme:objectid>1288a71f-64b1-4357-9e01-793ef8ee2537</delorme:objectid>
		<delorme:pnsymbol>1</delorme:pnsymbol>
	</extensions>
</wpt>
<wpt lat="39.956663013" lon="-112.899677992">
	<ele>1386.386230</ele>
	<time>2016-05-09T19:01:00Z</time>
	<name>122 - SPOAIR</name>
	<sym>Red Map Pin</sym>
	<extensions>
		<delorme:objectid>5dba2391-d357-466b-9fb2-96aa5a736ea6</delorme:objectid>
		<delorme:pnsymbol>1</delorme:pnsymbol>
	</extensions>
</wpt>
<wpt lat="40.945031047" lon="-113.766836047">
	<ele>1737.958008</ele>
	<time>2016-05-09T19:01:00Z</time>
	<name>123 - SPOCRY</name>
	<sym>Red Map Pin</sym>
	<extensions>
		<delorme:objectid>fc3e532f-9704-46c5-a098-813098283b1b</delorme:objectid>
		<delorme:pnsymbol>1</delorme:pnsymbol>
	</extensions>
</wpt>
<wpt lat="40.805040956" lon="-114.018471003">
	<ele>1465.393311</ele>
	<time>2016-05-09T19:01:00Z</time>
	<name>124 - SPOCRY</name>
	<sym>Red Map Pin</sym>
	<extensions>
		<delorme:objectid>ca6edb54-e9a1-40c3-b760-fc254dbe3233</delorme:objectid>
		<delorme:pnsymbol>1</delorme:pnsymbol>
	</extensions>
</wpt>
<wpt lat="40.351632953" lon="-112.550883055">
	<ele>1898.682617</ele>
	<time>2016-05-09T19:01:00Z</time>
	<name>125 - ELYELY</name>
	<sym>Red Map Pin</sym>
	<extensions>
		<delorme:objectid>013ef766-1d7b-4dcf-bd92-1a5b3f757f43</delorme:objectid>
		<delorme:pnsymbol>1</delorme:pnsymbol>
	</extensions>
</wpt>
<wpt lat="40.066277981" lon="-112.657629013">
	<ele>1643.303955</ele>
	<time>2016-05-09T19:01:00Z</time>
	<name>126 - ACHMIL</name>
	<sym>Red Map Pin</sym>
	<extensions>
		<delorme:objectid>ca734e43-5b2b-4ef2-9a25-005bc3148229</delorme:objectid>
		<delorme:pnsymbol>1</delorme:pnsymbol>
	</extensions>
</wpt>
<wpt lat="40.140215993" lon="-112.604877949">
	<ele>1714.884033</ele>
	<time>2016-05-09T19:01:00Z</time>
	<name>127 - HEAN</name>
	<sym>Red Map Pin</sym>
	<extensions>
		<delorme:objectid>2a2d1810-8289-4c07-b152-37668170be82</delorme:objectid>
		<delorme:pnsymbol>1</delorme:pnsymbol>
	</extensions>
</wpt>
<wpt lat="40.297374249" lon="-112.628922582">
	<ele>1523.521484</ele>
	<time>2016-06-17T22:28:34Z</time>
	<name>ACHMIL &amp; PP RR</name>
	<sym>Red Map Pin</sym>
	<extensions>
		<delorme:objectid>2812f946-1dd2-11b2-8f6d-504244454a4a</delorme:objectid>
		<delorme:pnsymbol>1</delorme:pnsymbol>
	</extensions>
</wpt>
<wpt lat="41.671011686" lon="-113.820162892">
	<time>2016-06-14T19:49:36Z</time>
	<name>ACHMIL ingham pass</name>
	<sym>Red Map Pin</sym>
	<extensions>
		<delorme:objectid>2914ca22-1dd2-11b2-8842-504244454a4a</delorme:objectid>
		<delorme:pnsymbol>1</delorme:pnsymbol>
	</extensions>
</wpt>
<wpt lat="41.549703836" lon="-113.695869446">
	<ele>1735.465698</ele>
	<time>2016-06-14T15:28:16Z</time>
	<name>AchMil Keg Springs</name>
	<sym>Red Map Pin</sym>
	<extensions>
		<delorme:objectid>1d3b09c8-1dd2-11b2-95d2-504244454a4a</delorme:objectid>
		<delorme:pnsymbol>1</delorme:pnsymbol>
	</extensions>
</wpt>
<wpt lat="41.617999077" lon="-113.520063758">
	<time>2016-06-14T22:08:07Z</time>
	<name>ACHMIL RR</name>
	<sym>Dark Turquoise Map Pin</sym>
	<extensions>
		<delorme:objectid>17fcb600-1dd2-11b2-8811-504244454a4a</delorme:objectid>
		<delorme:pnsymbol>8</delorme:pnsymbol>
	</extensions>
</wpt>
<wpt lat="41.255300045" lon="-114.014700055">
	<ele>2186.961426</ele>
	<time>2016-05-09T19:01:00Z</time>
	<name>ACHMIL1</name>
	<sym>Red Map Pin</sym>
	<extensions>
		<delorme:objectid>826c059d-0002-4d67-9f85-55c134d5c496</delorme:objectid>
		<delorme:pnsymbol>1</delorme:pnsymbol>
	</extensions>
</wpt>
<wpt lat="41.560700059" lon="-111.111500025">
	<ele>2023.393799</ele>
	<time>2016-05-09T19:01:00Z</time>
	<name>ACHMIL2</name>
	<sym>Red Map Pin</sym>
	<extensions>
		<delorme:objectid>35f232ce-4a43-415e-9e4f-731c8d951443</delorme:objectid>
		<delorme:pnsymbol>1</delorme:pnsymbol>
	</extensions>
</wpt>
<wpt lat="37.491866946" lon="-112.944916964">
	<ele>2606.473877</ele>
	<time>2016-05-09T19:01:00Z</time>
	<name>ACHMIL3</name>
	<sym>Red Map Pin</sym>
	<extensions>
		<delorme:objectid>923eb3f5-1685-47d8-882c-bd0831e1c383</delorme:objectid>
		<delorme:pnsymbol>1</delorme:pnsymbol>
	</extensions>
</wpt>
<wpt lat="38.412990451" lon="-113.697464108">
	<ele>1694.146362</ele>
	<time>2016-06-09T16:55:51Z</time>
	<name>ACHY Pine Val S</name>
	<sym>Red Map Pin</sym>
	<extensions>
		<delorme:objectid>322361be-1dd2-11b2-84be-504244454a4a</delorme:objectid>
		<delorme:pnsymbol>1</delorme:pnsymbol>
	</extensions>
</wpt>
<wpt lat="39.360053420" lon="-113.643905163">
	<time>2016-06-10T18:43:38Z</time>
	<name>ACHY Pine Val S 002</name>
	<sym>Red Map Pin</sym>
	<extensions>
		<delorme:objectid>2a59c93c-1dd2-11b2-83d0-504244454a4a</delorme:objectid>
		<delorme:pnsymbol>1</delorme:pnsymbol>
	</extensions>
</wpt>
<wpt lat="40.498888016" lon="-112.374166012">
	<ele>1471.806030</ele>
	<time>2016-05-09T19:01:00Z</time>
	<name>AGOGLA1</name>
	<sym>Red Map Pin</sym>
	<extensions>
		<delorme:objectid>c21a2032-a177-4155-a04c-4f93934ef2bc</delorme:objectid>
		<delorme:pnsymbol>1</delorme:pnsymbol>
	</extensions>
</wpt>
<wpt lat="39.903059959" lon="-112.347540021">
	<ele>2087.344727</ele>
	<time>2016-05-09T19:01:00Z</time>
	<name>AGOGLA2</name>
	<sym>Red Map Pin</sym>
	<extensions>
		<delorme:objectid>9e766d67-f6dd-4f1b-8683-60d0b2ae909b</delorme:objectid>
		<delorme:pnsymbol>1</delorme:pnsymbol>
	</extensions>
</wpt>
<wpt lat="40.341321945" lon="-109.053540945">
	<ele>1944.720337</ele>
	<time>2016-05-09T19:01:00Z</time>
	<name>AGOGLA3</name>
	<sym>Red Map Pin</sym>
	<extensions>
		<delorme:objectid>e10081b0-e541-45c1-80e7-86e927611d77</delorme:objectid>
		<delorme:pnsymbol>1</delorme:pnsymbol>
	</extensions>
</wpt>
<wpt lat="41.582000017" lon="-111.930999994">
	<ele>1537.658081</ele>
	<time>2016-05-09T19:01:00Z</time>
	<name>AGOGRA4</name>
	<sym>Red Map Pin</sym>
	<extensions>
		<delorme:objectid>c4449030-ba60-4367-98d4-de9878339add</delorme:objectid>
		<delorme:pnsymbol>1</delorme:pnsymbol>
	</extensions>
</wpt>
<wpt lat="41.769165993" lon="-111.768610954">
	<ele>1880.592896</ele>
	<time>2016-05-09T19:01:00Z</time>
	<name>AGOGRA5</name>
	<sym>Red Map Pin</sym>
	<extensions>
		<delorme:objectid>c5a1cce7-a91d-4136-b8c3-2628294f1cd8</delorme:objectid>
		<delorme:pnsymbol>1</delorme:pnsymbol>
	</extensions>
</wpt>
<wpt lat="41.868800044" lon="-111.235299945">
	<ele>2183.829102</ele>
	<time>2016-05-09T19:01:00Z</time>
	<name>ANTDIM1</name>
	<sym>Red Map Pin</sym>
	<extensions>
		<delorme:objectid>71e43fce-56a0-4423-9227-da1a0e56f6ed</delorme:objectid>
		<delorme:pnsymbol>1</delorme:pnsymbol>
	</extensions>
</wpt>
<wpt lat="41.795899987" lon="-111.235299945">
	<ele>2119.527588</ele>
	<time>2016-05-09T19:01:00Z</time>
	<name>ANTDIM2</name>
	<sym>Red Map Pin</sym>
	<extensions>
		<delorme:objectid>f40ed3e0-b66c-4209-a430-6a7dce49231a</delorme:objectid>
		<delorme:pnsymbol>1</delorme:pnsymbol>
	</extensions>
</wpt>
<wpt lat="40.513332963" lon="-112.485277057">
	<ele>1559.178955</ele>
	<time>2016-05-09T19:01:00Z</time>
	<name>ANTDIM3</name>
	<sym>Red Map Pin</sym>
	<extensions>
		<delorme:objectid>964a3a97-0fcf-4f94-b1f5-70f51e2dedd8</delorme:objectid>
		<delorme:pnsymbol>1</delorme:pnsymbol>
	</extensions>
</wpt>
<wpt lat="41.660671830" lon="-113.740894794">
	<time>2016-06-29T21:44:26Z</time>
	<name>Antenaria RR</name>
	<sym>Dark Turquoise Map Pin</sym>
	<extensions>
		<delorme:objectid>238cc712-1dd2-11b2-8721-504244454a4a</delorme:objectid>
		<delorme:pnsymbol>8</delorme:pnsymbol>
	</extensions>
</wpt>
<wpt lat="41.923200011" lon="-111.075999975">
	<ele>2037.468872</ele>
	<time>2016-05-09T19:01:00Z</time>
	<name>ANTMIC1</name>
	<sym>Red Map Pin</sym>
	<extensions>
		<delorme:objectid>fa1f7548-ed00-4d34-8e81-4ed634488f24</delorme:objectid>
		<delorme:pnsymbol>1</delorme:pnsymbol>
	</extensions>
</wpt>
<wpt lat="39.992498994" lon="-113.857221961">
	<ele>2253.055176</ele>
	<time>2016-05-09T19:01:00Z</time>
	<name>ANTMIC2</name>
	<sym>Red Map Pin</sym>
	<extensions>
		<delorme:objectid>555278bd-9fc5-4cba-baf9-c7f0cc2f64c4</delorme:objectid>
		<delorme:pnsymbol>1</delorme:pnsymbol>
	</extensions>
</wpt>
<wpt lat="39.849166989" lon="-113.876111031">
	<ele>2833.559814</ele>
	<time>2016-05-09T19:01:00Z</time>
	<name>ANTMIC3</name>
	<sym>Red Map Pin</sym>
	<extensions>
		<delorme:objectid>1cd142a6-93f5-40f4-8e46-6a8c2ab8f6cc</delorme:objectid>
		<delorme:pnsymbol>1</delorme:pnsymbol>
	</extensions>
</wpt>
<wpt lat="39.852499962" lon="-113.871111035">
	<ele>2682.757568</ele>
	<time>2016-05-09T19:01:00Z</time>
	<name>ARALYA</name>
	<sym>Red Map Pin</sym>
	<extensions>
		<delorme:objectid>c53fd748-9d8c-4bc8-8ec8-f6b18a0917c7</delorme:objectid>
		<delorme:pnsymbol>1</delorme:pnsymbol>
	</extensions>
</wpt>
<wpt lat="39.023900032" lon="-113.357200027">
	<ele>1531.954224</ele>
	<time>2016-05-09T19:01:00Z</time>
	<name>ARASHO</name>
	<sym>Red Map Pin</sym>
	<extensions>
		<delorme:objectid>c9571b8a-04d7-4d2b-b805-a2f8e3aabdd8</delorme:objectid>
		<delorme:pnsymbol>1</delorme:pnsymbol>
	</extensions>
</wpt>
<wpt lat="39.975360036" lon="-112.494670033">
	<ele>2304.862305</ele>
	<time>2016-05-09T19:01:00Z</time>
	<name>ARELAN1</name>
	<sym>Red Map Pin</sym>
	<extensions>
		<delorme:objectid>2ed406bb-f159-4b01-b309-9d1ed49c114d</delorme:objectid>
		<delorme:pnsymbol>1</delorme:pnsymbol>
	</extensions>
</wpt>
<wpt lat="39.975360036" lon="-112.494660020">
	<ele>2304.793945</ele>
	<time>2016-05-09T19:01:00Z</time>
	<name>ARELAN2</name>
	<sym>Red Map Pin</sym>
	<extensions>
		<delorme:objectid>9851c9b4-1580-48ef-902c-f5c2d496756c</delorme:objectid>
		<delorme:pnsymbol>1</delorme:pnsymbol>
	</extensions>
</wpt>
<wpt lat="37.296678782" lon="-113.924098015">
	<ele>1242.573120</ele>
	<time>2016-05-12T16:21:12Z</time>
	<name>ARPU Red Spring</name>
	<sym>Red Map Pin</sym>
	<extensions>
		<delorme:objectid>1ac6496e-1dd2-11b2-86b7-504244454a4a</delorme:objectid>
		<delorme:pnsymbol>1</delorme:pnsymbol>
	</extensions>
</wpt>
<wpt lat="40.122513056" lon="-109.281447053">
	<ele>1568.752319</ele>
	<time>2016-05-09T19:01:00Z</time>
	<name>ARPU1</name>
	<sym>Red Map Pin</sym>
	<extensions>
		<delorme:objectid>538e3f7e-1ade-4f0b-82a5-dfcd088e90a5</delorme:objectid>
		<delorme:pnsymbol>1</delorme:pnsymbol>
	</extensions>
</wpt>
<wpt lat="39.933339000" lon="-109.846832991">
	<ele>1499.536987</ele>
	<time>2016-05-09T19:01:00Z</time>
	<name>ARPU2</name>
	<sym>Red Map Pin</sym>
	<extensions>
		<delorme:objectid>6e015121-795c-49ff-a665-5453f2577a45</delorme:objectid>
		<delorme:pnsymbol>1</delorme:pnsymbol>
	</extensions>
</wpt>
<wpt lat="40.530555010" lon="-112.495833039">
	<ele>1545.296143</ele>
	<time>2016-05-09T19:01:00Z</time>
	<name>ARPU3</name>
	<sym>Red Map Pin</sym>
	<extensions>
		<delorme:objectid>f26ee7cc-00c6-453b-b665-f1bb57ac2238</delorme:objectid>
		<delorme:pnsymbol>1</delorme:pnsymbol>
	</extensions>
</wpt>
<wpt lat="40.210505605" lon="-109.265774488">
	<ele>1747.222900</ele>
	<time>2016-06-08T00:09:09Z</time>
	<name>Asclepias speciosa</name>
	<sym>Red Map Pin</sym>
	<extensions>
		<delorme:objectid>18fca1c8-1dd2-11b2-86c1-504244454a4a</delorme:objectid>
		<delorme:pnsymbol>1</delorme:pnsymbol>
	</extensions>
</wpt>
<wpt lat="40.379602432" lon="-109.497468591">
	<time>2016-07-21T00:46:23Z</time>
	<name>ASCSPE RR</name>
	<sym>Green Map Pin</sym>
	<extensions>
		<delorme:objectid>213c1f3a-1dd2-11b2-999a-504244454a4a</delorme:objectid>
		<delorme:pnsymbol>5</delorme:pnsymbol>
	</extensions>
</wpt>
<wpt lat="40.229596853" lon="-109.408423066">
	<ele>1597.876465</ele>
	<time>2016-07-21T15:43:32Z</time>
	<name>ASCSPE RR 002</name>
	<sym>Green Map Pin</sym>
	<extensions>
		<delorme:objectid>26f3f1e6-1dd2-11b2-9cb4-504244454a4a</delorme:objectid>
		<delorme:pnsymbol>5</delorme:pnsymbol>
	</extensions>
</wpt>
<wpt lat="40.186483741" lon="-109.327000260">
	<time>2016-07-21T15:53:34Z</time>
	<name>ASCSPE RR 003</name>
	<sym>Green Map Pin</sym>
	<extensions>
		<delorme:objectid>2831231c-1dd2-11b2-9cb4-504244454a4a</delorme:objectid>
		<delorme:pnsymbol>5</delorme:pnsymbol>
	</extensions>
</wpt>
<wpt lat="40.200858951" lon="-109.292414308">
	<time>2016-07-21T18:44:01Z</time>
	<name>ASCSPE RR 004</name>
	<sym>Green Map Pin</sym>
	<extensions>
		<delorme:objectid>14786042-1dd2-11b2-8f86-504244454a4a</delorme:objectid>
		<delorme:pnsymbol>5</delorme:pnsymbol>
	</extensions>
</wpt>
<wpt lat="40.210471988" lon="-109.269038677">
	<time>2016-07-21T18:47:23Z</time>
	<name>ASCSPE RR 005</name>
	<sym>Green Map Pin</sym>
	<extensions>
		<delorme:objectid>21ccc4b8-1dd2-11b2-8f86-504244454a4a</delorme:objectid>
		<delorme:pnsymbol>5</delorme:pnsymbol>
	</extensions>
</wpt>
<wpt lat="40.179744601" lon="-109.413871288">
	<time>2016-07-21T19:13:04Z</time>
	<name>ASCSPE RR 006</name>
	<sym>Green Map Pin</sym>
	<extensions>
		<delorme:objectid>1646a38e-1dd2-11b2-8f87-504244454a4a</delorme:objectid>
		<delorme:pnsymbol>5</delorme:pnsymbol>
	</extensions>
</wpt>
<wpt lat="40.176654696" lon="-109.445776701">
	<time>2016-07-21T19:17:22Z</time>
	<name>ASCSPE RR 007</name>
	<sym>Green Map Pin</sym>
	<extensions>
		<delorme:objectid>21132c10-1dd2-11b2-8f87-504244454a4a</delorme:objectid>
		<delorme:pnsymbol>5</delorme:pnsymbol>
	</extensions>
</wpt>
<wpt lat="37.309946537" lon="-113.975461006">
	<ele>1208.423218</ele>
	<time>2016-05-12T15:42:04Z</time>
	<name>AST Motoqua</name>
	<sym>Red Map Pin</sym>
	<extensions>
		<delorme:objectid>165940b6-1dd2-11b2-9949-504244454a4a</delorme:objectid>
		<delorme:pnsymbol>1</delorme:pnsymbol>
	</extensions>
</wpt>
<wpt lat="40.137024999" lon="-109.682178020">
	<ele>1459.306763</ele>
	<time>2016-05-09T19:01:00Z</time>
	<name>ASTCON1</name>
	<sym>Red Map Pin</sym>
	<extensions>
		<delorme:objectid>b14f9360-b56f-456c-97ea-516849ae2bd1</delorme:objectid>
		<delorme:pnsymbol>1</delorme:pnsymbol>
	</extensions>
</wpt>
<wpt lat="40.394044042" lon="-109.608868003">
	<ele>1684.165649</ele>
	<time>2016-05-09T19:01:00Z</time>
	<name>ASTCON2</name>
	<sym>Red Map Pin</sym>
	<extensions>
		<delorme:objectid>c483a6b4-6c31-4c04-b946-ba173fcc8731</delorme:objectid>
		<delorme:pnsymbol>1</delorme:pnsymbol>
	</extensions>
</wpt>
<wpt lat="40.556156039" lon="-109.399886966">
	<ele>1672.896240</ele>
	<time>2016-05-09T19:01:00Z</time>
	<name>ASTCON3</name>
	<sym>Red Map Pin</sym>
	<extensions>
		<delorme:objectid>10120f1e-8b3a-4891-b548-0aa2ad533d38</delorme:objectid>
		<delorme:pnsymbol>1</delorme:pnsymbol>
	</extensions>
</wpt>
<wpt lat="41.559682965" lon="-113.967017055">
	<ele>1595.523804</ele>
	<time>2016-05-09T19:01:00Z</time>
	<name>ASTFIL1</name>
	<sym>Red Map Pin</sym>
	<extensions>
		<delorme:objectid>8dc8947f-a6a1-48be-952b-e55f6b5669e6</delorme:objectid>
		<delorme:pnsymbol>1</delorme:pnsymbol>
	</extensions>
</wpt>
<wpt lat="41.899857998" lon="-114.008494020">
	<ele>1742.305176</ele>
	<time>2016-05-09T19:01:00Z</time>
	<name>ASTFIL2</name>
	<sym>Red Map Pin</sym>
	<extensions>
		<delorme:objectid>60c428b3-5b6a-4f21-8cff-5af1aff29e82</delorme:objectid>
		<delorme:pnsymbol>1</delorme:pnsymbol>
	</extensions>
</wpt>
<wpt lat="39.745929003" lon="-112.431102037">
	<ele>1592.625366</ele>
	<time>2016-05-09T19:01:00Z</time>
	<name>ASTLEN1</name>
	<sym>Red Map Pin</sym>
	<extensions>
		<delorme:objectid>7a2e95c4-765c-46b6-8df2-781ee93cb35c</delorme:objectid>
		<delorme:pnsymbol>1</delorme:pnsymbol>
	</extensions>
</wpt>
<wpt lat="37.782600045" lon="-112.439599991">
	<ele>2195.874268</ele>
	<time>2016-05-09T19:01:00Z</time>
	<name>ASTLEN2</name>
	<sym>Red Map Pin</sym>
	<extensions>
		<delorme:objectid>b9e372ae-a4fe-4ea4-ad35-49fe818eca73</delorme:objectid>
		<delorme:pnsymbol>1</delorme:pnsymbol>
	</extensions>
</wpt>
<wpt lat="38.372120023" lon="-113.837849975">
	<ele>2033.617554</ele>
	<time>2016-05-09T19:01:00Z</time>
	<name>ASTLEN3</name>
	<sym>Red Map Pin</sym>
	<extensions>
		<delorme:objectid>b5df5ed3-a4e9-4309-bd99-a148aa3c056f</delorme:objectid>
		<delorme:pnsymbol>1</delorme:pnsymbol>
	</extensions>
</wpt>
<wpt lat="41.495833039" lon="-113.625277042">
	<ele>1461.981567</ele>
	<time>2016-05-09T19:01:00Z</time>
	<name>ASTPUR1</name>
	<sym>Red Map Pin</sym>
	<extensions>
		<delorme:objectid>ac34e2be-a819-4cc8-a9f4-b68e26b3c9c6</delorme:objectid>
		<delorme:pnsymbol>1</delorme:pnsymbol>
	</extensions>
</wpt>
<wpt lat="37.890300035" lon="-113.901999950">
	<ele>1828.644775</ele>
	<time>2016-05-09T19:01:00Z</time>
	<name>ASTPUR2</name>
	<sym>Red Map Pin</sym>
	<extensions>
		<delorme:objectid>fcd3ece9-0179-4146-961d-b888264aa4b9</delorme:objectid>
		<delorme:pnsymbol>1</delorme:pnsymbol>
	</extensions>
</wpt>
<wpt lat="40.238270044" lon="-109.216439962">
	<ele>1707.578613</ele>
	<time>2016-05-09T19:01:00Z</time>
	<name>ASTPUR3</name>
	<sym>Red Map Pin</sym>
	<extensions>
		<delorme:objectid>81eea827-87c3-4481-8409-5d8aecb5cec9</delorme:objectid>
		<delorme:pnsymbol>1</delorme:pnsymbol>
	</extensions>
</wpt>
<wpt lat="41.586158752" lon="-113.785110950">
	<ele>1867.541382</ele>
	<time>2016-05-17T00:19:59Z</time>
	<name>Astrag Keg Springs</name>
	<sym>Red Map Pin</sym>
	<extensions>
		<delorme:objectid>3720c986-1dd2-11b2-8af8-504244454a4a</delorme:objectid>
		<delorme:pnsymbol>1</delorme:pnsymbol>
	</extensions>
</wpt>
<wpt lat="41.821666002" lon="-113.628610969">
	<ele>2024.295654</ele>
	<time>2016-05-09T19:01:00Z</time>
	<name>BALHIS1</name>
	<sym>Red Map Pin</sym>
	<extensions>
		<delorme:objectid>f3602f01-2c4e-4526-b082-8d0f07580ec6</delorme:objectid>
		<delorme:pnsymbol>1</delorme:pnsymbol>
	</extensions>
</wpt>
<wpt lat="40.496111035" lon="-112.398887992">
	<ele>1502.768799</ele>
	<time>2016-05-09T19:01:00Z</time>
	<name>BALHIS2</name>
	<sym>Red Map Pin</sym>
	<extensions>
		<delorme:objectid>e8fc303c-6612-48d6-af12-610b5a4bf28e</delorme:objectid>
		<delorme:pnsymbol>1</delorme:pnsymbol>
	</extensions>
</wpt>
<wpt lat="40.034999967" lon="-112.782776952">
	<ele>1546.258423</ele>
	<time>2016-05-09T19:01:00Z</time>
	<name>BALHIS3</name>
	<sym>Red Map Pin</sym>
	<extensions>
		<delorme:objectid>5bd44f58-a34f-4b9b-9049-99db4ad1d2b3</delorme:objectid>
		<delorme:pnsymbol>1</delorme:pnsymbol>
	</extensions>
</wpt>
<wpt lat="41.572652459" lon="-113.749092579">
	<time>2016-07-11T20:12:42Z</time>
	<name>BALSAG RR</name>
	<sym>Dark Turquoise Map Pin</sym>
	<extensions>
		<delorme:objectid>2d1e366c-1dd2-11b2-91b5-504244454a4a</delorme:objectid>
		<delorme:pnsymbol>8</delorme:pnsymbol>
	</extensions>
</wpt>
<wpt lat="38.584800005" lon="-113.806800008">
	<ele>1770.894043</ele>
	<time>2016-05-09T19:01:00Z</time>
	<name>BOUGRA1</name>
	<sym>Red Map Pin</sym>
	<extensions>
		<delorme:objectid>34e71aa6-0175-4ed6-82bd-949ca709c860</delorme:objectid>
		<delorme:pnsymbol>1</delorme:pnsymbol>
	</extensions>
</wpt>
<wpt lat="37.145172954" lon="-112.608867049">
	<ele>1792.888062</ele>
	<time>2016-05-09T19:01:00Z</time>
	<name>BOUGRA2</name>
	<sym>Red Map Pin</sym>
	<extensions>
		<delorme:objectid>24b49542-4385-4e08-a2a3-70f055569e5b</delorme:objectid>
		<delorme:pnsymbol>1</delorme:pnsymbol>
	</extensions>
</wpt>
<wpt lat="37.701629996" lon="-112.397289991">
	<ele>2118.302002</ele>
	<time>2016-05-09T19:01:00Z</time>
	<name>BOUGRA3</name>
	<sym>Red Map Pin</sym>
	<extensions>
		<delorme:objectid>1d1982b8-6ca9-4d6c-833b-d30dcb008b03</delorme:objectid>
		<delorme:pnsymbol>1</delorme:pnsymbol>
	</extensions>
</wpt>
<wpt lat="37.823140025" lon="-112.446560025">
	<ele>2024.181763</ele>
	<time>2016-05-09T19:01:00Z</time>
	<name>BOUSIM</name>
	<sym>Red Map Pin</sym>
	<extensions>
		<delorme:objectid>264c2dbf-36d7-4b5d-8831-4cd08b2993f1</delorme:objectid>
		<delorme:pnsymbol>1</delorme:pnsymbol>
	</extensions>
</wpt>
<wpt lat="38.208084464" lon="-113.667815804">
	<ele>1895.556641</ele>
	<time>2016-06-09T16:18:26Z</time>
	<name>CALLAV Pine Val S</name>
	<sym>Red Map Pin</sym>
	<extensions>
		<delorme:objectid>237ade3a-1dd2-11b2-8bd4-504244454a4a</delorme:objectid>
		<delorme:pnsymbol>1</delorme:pnsymbol>
	</extensions>
</wpt>
<wpt lat="38.207537889" lon="-113.668356061">
	<ele>1898.955200</ele>
	<time>2016-06-09T16:25:43Z</time>
	<name>CALLAV Pine Val S 002</name>
	<sym>Red Map Pin</sym>
	<extensions>
		<delorme:objectid>2d7bab3a-1dd2-11b2-8bd4-504244454a4a</delorme:objectid>
		<delorme:pnsymbol>1</delorme:pnsymbol>
	</extensions>
</wpt>
<wpt lat="41.661666989" lon="-113.741111040">
	<ele>2312.306885</ele>
	<time>2016-05-09T19:01:00Z</time>
	<name>CASANG1</name>
	<sym>Red Map Pin</sym>
	<extensions>
		<delorme:objectid>01edd932-8474-4ebb-b31c-b40f2bfcac70</delorme:objectid>
		<delorme:pnsymbol>1</delorme:pnsymbol>
	</extensions>
</wpt>
<wpt lat="41.425616980" lon="-114.040667057">
	<ele>1639.243286</ele>
	<time>2016-05-09T19:01:00Z</time>
	<name>CASANG2</name>
	<sym>Red Map Pin</sym>
	<extensions>
		<delorme:objectid>a62166e2-fb29-4181-9dc3-50c24252db78</delorme:objectid>
		<delorme:pnsymbol>1</delorme:pnsymbol>
	</extensions>
</wpt>
<wpt lat="39.747040033" lon="-113.881960034">
	<ele>2043.958496</ele>
	<time>2016-05-09T19:01:00Z</time>
	<name>CASANG3</name>
	<sym>Red Map Pin</sym>
	<extensions>
		<delorme:objectid>c4a7fbf8-943c-42d9-b964-d9779d87b943</delorme:objectid>
		<delorme:pnsymbol>1</delorme:pnsymbol>
	</extensions>
</wpt>
<wpt lat="39.317996860" lon="-113.721794963">
	<ele>1717.577881</ele>
	<time>2016-06-01T21:20:12Z</time>
	<name>CHADOU Old 6&amp;50</name>
	<sym>Red Map Pin</sym>
	<extensions>
		<delorme:objectid>1ab00b7c-1dd2-11b2-8ae1-504244454a4a</delorme:objectid>
		<delorme:pnsymbol>1</delorme:pnsymbol>
	</extensions>
</wpt>
<wpt lat="38.976197839" lon="-113.365835428">
	<ele>0.000000</ele>
	<time>2016-06-02T22:10:36Z</time>
	<name>Chaenactis Tule Val</name>
	<sym>Red Map Pin</sym>
	<extensions>
		<delorme:objectid>28fa39be-1dd2-11b2-9651-504244454a4a</delorme:objectid>
		<delorme:pnsymbol>1</delorme:pnsymbol>
	</extensions>
</wpt>
<wpt lat="39.873544931" lon="-113.280874610">
	<ele>1320.203125</ele>
	<time>2016-05-31T21:02:06Z</time>
	<name>Chaenactis-Tetradymia</name>
	<sym>Red Map Pin</sym>
	<extensions>
		<delorme:objectid>176ae7ac-1dd2-11b2-8705-504244454a4a</delorme:objectid>
		<delorme:pnsymbol>1</delorme:pnsymbol>
	</extensions>
</wpt>
<wpt lat="39.056407332" lon="-113.884957790">
	<ele>1545.347534</ele>
	<time>2016-06-01T22:25:27Z</time>
	<name>CHASTE Knoll Springs</name>
	<sym>Red Map Pin</sym>
	<extensions>
		<delorme:objectid>23d617dc-1dd2-11b2-98b7-504244454a4a</delorme:objectid>
		<delorme:pnsymbol>1</delorme:pnsymbol>
	</extensions>
</wpt>
<wpt lat="39.341812015" lon="-113.630459785">
	<ele>1490.654175</ele>
	<time>2016-06-01T20:51:52Z</time>
	<name>CHASTE Old 6&amp;50</name>
	<sym>Red Map Pin</sym>
	<extensions>
		<delorme:objectid>32eb7a50-1dd2-11b2-8917-504244454a4a</delorme:objectid>
		<delorme:pnsymbol>1</delorme:pnsymbol>
	</extensions>
</wpt>
<wpt lat="39.941747904" lon="-109.084477186">
	<time>2016-07-20T21:57:56Z</time>
	<name>Chrysothamnus Weaver</name>
	<sym>Red Map Pin</sym>
	<extensions>
		<delorme:objectid>3522c454-1dd2-11b2-9998-504244454a4a</delorme:objectid>
		<delorme:pnsymbol>1</delorme:pnsymbol>
	</extensions>
</wpt>
<wpt lat="39.871594071" lon="-113.239116549">
	<ele>1361.878662</ele>
	<time>2016-05-31T20:49:59Z</time>
	<name>CLELUT 004</name>
	<sym>Red Map Pin</sym>
	<extensions>
		<delorme:objectid>372de788-1dd2-11b2-979f-504244454a4a</delorme:objectid>
		<delorme:pnsymbol>1</delorme:pnsymbol>
	</extensions>
</wpt>
<wpt lat="39.958823323" lon="-112.894741416">
	<ele>1351.707642</ele>
	<time>2016-05-31T20:06:08Z</time>
	<name>CLELUT Pony</name>
	<sym>Red Map Pin</sym>
	<extensions>
		<delorme:objectid>18de8620-1dd2-11b2-83e3-504244454a4a</delorme:objectid>
		<delorme:pnsymbol>1</delorme:pnsymbol>
	</extensions>
</wpt>
<wpt lat="39.957142234" lon="-112.900871873">
	<ele>1345.343750</ele>
	<time>2016-05-31T20:09:33Z</time>
	<name>CLELUT Pony 002</name>
	<sym>Red Map Pin</sym>
	<extensions>
		<delorme:objectid>27907e08-1dd2-11b2-9953-504244454a4a</delorme:objectid>
		<delorme:pnsymbol>1</delorme:pnsymbol>
	</extensions>
</wpt>
<wpt lat="39.955771089" lon="-112.906021714">
	<ele>1355.012451</ele>
	<time>2016-05-31T20:11:00Z</time>
	<name>CLELUT Pony 003</name>
	<sym>Red Map Pin</sym>
	<extensions>
		<delorme:objectid>13a2d148-1dd2-11b2-944a-504244454a4a</delorme:objectid>
		<delorme:pnsymbol>1</delorme:pnsymbol>
	</extensions>
</wpt>
<wpt lat="41.653926015" lon="-111.099694014">
	<ele>2299.447021</ele>
	<time>2016-05-09T19:01:00Z</time>
	<name>COLPAR1</name>
	<sym>Red Map Pin</sym>
	<extensions>
		<delorme:objectid>9273ab09-1c56-49b9-8c16-722656f6c30b</delorme:objectid>
		<delorme:pnsymbol>1</delorme:pnsymbol>
	</extensions>
</wpt>
<wpt lat="39.965832949" lon="-112.277498960">
	<ele>1894.617432</ele>
	<time>2016-05-09T19:01:00Z</time>
	<name>COLPAR2</name>
	<sym>Red Map Pin</sym>
	<extensions>
		<delorme:objectid>156f422c-abe0-4063-89a2-5a933aba69c6</delorme:objectid>
		<delorme:pnsymbol>1</delorme:pnsymbol>
	</extensions>
</wpt>
<wpt lat="39.750555038" lon="-113.898610950">
	<ele>2290.844238</ele>
	<time>2016-05-09T19:01:00Z</time>
	<name>COLPAR3</name>
	<sym>Red Map Pin</sym>
	<extensions>
		<delorme:objectid>5bc47da9-6c83-48ba-9044-b6f01b6a87f6</delorme:objectid>
		<delorme:pnsymbol>1</delorme:pnsymbol>
	</extensions>
</wpt>
<wpt lat="41.646065712" lon="-113.727052093">
	<time>2016-06-14T21:46:37Z</time>
	<name>CREACU ingham</name>
	<sym>Red Map Pin</sym>
	<extensions>
		<delorme:objectid>29e62ba8-1dd2-11b2-8810-504244454a4a</delorme:objectid>
		<delorme:pnsymbol>1</delorme:pnsymbol>
	</extensions>
</wpt>
<wpt lat="41.647022009" lon="-113.736917019">
	<ele>2145.555420</ele>
	<time>2016-05-09T19:01:00Z</time>
	<name>CREACU1</name>
	<sym>Red Map Pin</sym>
	<extensions>
		<delorme:objectid>adb7b195-31a0-41db-9c2a-0696e01d5609</delorme:objectid>
		<delorme:pnsymbol>1</delorme:pnsymbol>
	</extensions>
</wpt>
<wpt lat="41.530799985" lon="-113.688899994">
	<ele>1728.419067</ele>
	<time>2016-05-09T19:01:00Z</time>
	<name>CREACU2</name>
	<sym>Red Map Pin</sym>
	<extensions>
		<delorme:objectid>c8321a75-82cc-4795-96e8-caff528f8570</delorme:objectid>
		<delorme:pnsymbol>1</delorme:pnsymbol>
	</extensions>
</wpt>
<wpt lat="41.341943979" lon="-111.102777004">
	<ele>2063.721680</ele>
	<time>2016-05-09T19:01:00Z</time>
	<name>CREACU3</name>
	<sym>Red Map Pin</sym>
	<extensions>
		<delorme:objectid>b04087af-c1ad-4c79-a178-8772cb9d2d2f</delorme:objectid>
		<delorme:pnsymbol>1</delorme:pnsymbol>
	</extensions>
</wpt>
<wpt lat="41.341943979" lon="-111.102777004">
	<ele>2063.721680</ele>
	<time>2016-05-09T19:01:00Z</time>
	<name>CREMOD1</name>
	<sym>Red Map Pin</sym>
	<extensions>
		<delorme:objectid>910b8e01-991d-45af-9efe-6a3dd2b8f596</delorme:objectid>
		<delorme:pnsymbol>1</delorme:pnsymbol>
	</extensions>
</wpt>
<wpt lat="40.174960017" lon="-112.391960025">
	<ele>1613.098022</ele>
	<time>2016-05-09T19:01:00Z</time>
	<name>CREMOD2</name>
	<sym>Red Map Pin</sym>
	<extensions>
		<delorme:objectid>3cdffa6c-98dc-4d81-ab80-ba8c59a98129</delorme:objectid>
		<delorme:pnsymbol>1</delorme:pnsymbol>
	</extensions>
</wpt>
<wpt lat="40.594169974" lon="-109.553060055">
	<ele>2165.882080</ele>
	<time>2016-05-09T19:01:00Z</time>
	<name>CREMOD3</name>
	<sym>Red Map Pin</sym>
	<extensions>
		<delorme:objectid>fbcdc8d3-88da-4f1a-962c-1f05bf0eb86d</delorme:objectid>
		<delorme:pnsymbol>1</delorme:pnsymbol>
	</extensions>
</wpt>
<wpt lat="40.199658990" lon="-109.300190330">
	<ele>1727.272705</ele>
	<time>2016-06-07T23:33:16Z</time>
	<name>CRYFLA Red Wash</name>
	<sym>Red Map Pin</sym>
	<extensions>
		<delorme:objectid>1d699d60-1dd2-11b2-971a-504244454a4a</delorme:objectid>
		<delorme:pnsymbol>1</delorme:pnsymbol>
	</extensions>
</wpt>
<wpt lat="41.625988722" lon="-113.499143481">
	<ele>1577.263550</ele>
	<time>2016-05-17T16:15:19Z</time>
	<name>CRYP sp Emigrant </name>
	<sym>Red Map Pin</sym>
	<extensions>
		<delorme:objectid>1f2e0b9a-1dd2-11b2-8047-504244454a4a</delorme:objectid>
		<delorme:pnsymbol>1</delorme:pnsymbol>
	</extensions>
</wpt>
<wpt lat="39.939172983" lon="-109.107872725">
	<time>2016-07-20T21:29:20Z</time>
	<name>CRYSOTHAMNUS Hell hole </name>
	<sym>Red Map Pin</sym>
	<extensions>
		<delorme:objectid>2003e5ee-1dd2-11b2-9998-504244454a4a</delorme:objectid>
		<delorme:pnsymbol>1</delorme:pnsymbol>
	</extensions>
</wpt>
<wpt lat="41.654500008" lon="-111.094959974">
	<ele>2354.674072</ele>
	<time>2016-05-09T19:01:00Z</time>
	<name>DELNUT1</name>
	<sym>Red Map Pin</sym>
	<extensions>
		<delorme:objectid>dce0961b-ace6-4806-a468-511a03776d07</delorme:objectid>
		<delorme:pnsymbol>1</delorme:pnsymbol>
	</extensions>
</wpt>
<wpt lat="39.965832949" lon="-112.258332968">
	<ele>1870.281250</ele>
	<time>2016-05-09T19:01:00Z</time>
	<name>DELNUT2</name>
	<sym>Red Map Pin</sym>
	<extensions>
		<delorme:objectid>cd0f06d5-9e85-45bc-9cf0-e5ffe071c591</delorme:objectid>
		<delorme:pnsymbol>1</delorme:pnsymbol>
	</extensions>
</wpt>
<wpt lat="40.602779984" lon="-109.246109962">
	<ele>2355.327148</ele>
	<time>2016-05-09T19:01:00Z</time>
	<name>DELNUT3</name>
	<sym>Red Map Pin</sym>
	<extensions>
		<delorme:objectid>f20a0e8d-1b6b-4003-a607-231ea1b7403f</delorme:objectid>
		<delorme:pnsymbol>1</delorme:pnsymbol>
	</extensions>
</wpt>
<wpt lat="40.804258227" lon="-113.996682048">
	<ele>1482.812500</ele>
	<time>2016-05-16T19:23:42Z</time>
	<name>DESPIN RR</name>
	<sym>Red Map Pin</sym>
	<extensions>
		<delorme:objectid>2d1bb36a-1dd2-11b2-95c3-504244454a4a</delorme:objectid>
		<delorme:pnsymbol>1</delorme:pnsymbol>
	</extensions>
</wpt>
<wpt lat="40.115747094" lon="-112.644251943">
	<ele>1635.630737</ele>
	<time>2016-05-31T18:45:45Z</time>
	<name>DSCUR RR</name>
	<sym>Red Map Pin</sym>
	<extensions>
		<delorme:objectid>2ec973a0-1dd2-11b2-98cb-504244454a4a</delorme:objectid>
		<delorme:pnsymbol>1</delorme:pnsymbol>
	</extensions>
</wpt>
<wpt lat="41.660227776" lon="-113.743499756">
	<time>2016-06-14T21:51:39Z</time>
	<name>ELYCIN ingham16</name>
	<sym>Red Map Pin</sym>
	<extensions>
		<delorme:objectid>2acb91c0-1dd2-11b2-8810-504244454a4a</delorme:objectid>
		<delorme:pnsymbol>1</delorme:pnsymbol>
	</extensions>
</wpt>
<wpt lat="41.938300014" lon="-111.248000026">
	<ele>2026.530029</ele>
	<time>2016-05-09T19:01:00Z</time>
	<name>EPICIL1</name>
	<sym>Red Map Pin</sym>
	<extensions>
		<delorme:objectid>edcfb329-2efd-45d3-bb85-6a26b7301be6</delorme:objectid>
		<delorme:pnsymbol>1</delorme:pnsymbol>
	</extensions>
</wpt>
<wpt lat="37.077867985" lon="-112.663519025">
	<ele>1930.360596</ele>
	<time>2016-05-09T19:01:00Z</time>
	<name>EPICIL2</name>
	<sym>Red Map Pin</sym>
	<extensions>
		<delorme:objectid>51968deb-9625-407b-86a5-907f8de7eb57</delorme:objectid>
		<delorme:pnsymbol>1</delorme:pnsymbol>
	</extensions>
</wpt>
<wpt lat="37.157889962" lon="-112.544510007">
	<ele>1680.443604</ele>
	<time>2016-05-09T19:01:00Z</time>
	<name>EPILEP</name>
	<sym>Red Map Pin</sym>
	<extensions>
		<delorme:objectid>4f19036f-0f00-40d7-b912-25caecbad8e1</delorme:objectid>
		<delorme:pnsymbol>1</delorme:pnsymbol>
	</extensions>
</wpt>
<wpt lat="39.994945049" lon="-110.356636047">
	<ele>2120.150391</ele>
	<time>2016-05-09T19:01:00Z</time>
	<name>ERIABE</name>
	<sym>Red Map Pin</sym>
	<extensions>
		<delorme:objectid>95ca57c6-7455-426d-8ffb-2d5d614a0f44</delorme:objectid>
		<delorme:pnsymbol>1</delorme:pnsymbol>
	</extensions>
</wpt>
<wpt lat="40.147770047" lon="-110.747550011">
	<ele>2058.705322</ele>
	<time>2016-05-09T19:01:00Z</time>
	<name>ERIALA1</name>
	<sym>Red Map Pin</sym>
	<extensions>
		<delorme:objectid>9e9a9d5e-1650-4a90-89a8-bddf9a57a6a0</delorme:objectid>
		<delorme:pnsymbol>1</delorme:pnsymbol>
	</extensions>
</wpt>
<wpt lat="38.318611026" lon="-111.551388025">
	<ele>2127.701172</ele>
	<time>2016-05-09T19:01:00Z</time>
	<name>ERIALA2</name>
	<sym>Red Map Pin</sym>
	<extensions>
		<delorme:objectid>6d17a688-a7d8-4e5d-8550-472b7f574ea8</delorme:objectid>
		<delorme:pnsymbol>1</delorme:pnsymbol>
	</extensions>
</wpt>
<wpt lat="41.883337021" lon="-111.350003004">
	<ele>1805.137573</ele>
	<time>2016-05-09T19:01:00Z</time>
	<name>ERICOR1</name>
	<sym>Red Map Pin</sym>
	<extensions>
		<delorme:objectid>cb4e0108-5281-49a1-a05d-5cd33875433f</delorme:objectid>
		<delorme:pnsymbol>1</delorme:pnsymbol>
	</extensions>
</wpt>
<wpt lat="41.578500032" lon="-111.100999951">
	<ele>2053.584961</ele>
	<time>2016-05-09T19:01:00Z</time>
	<name>ERICOR2</name>
	<sym>Red Map Pin</sym>
	<extensions>
		<delorme:objectid>55548fce-2c29-435f-b8eb-20b216a3e77f</delorme:objectid>
		<delorme:pnsymbol>1</delorme:pnsymbol>
	</extensions>
</wpt>
<wpt lat="40.800715327" lon="-113.995965242">
	<ele>1512.488403</ele>
	<time>2016-05-16T18:38:55Z</time>
	<name>ERIG Leppy Pass</name>
	<sym>Red Map Pin</sym>
	<extensions>
		<delorme:objectid>3449b5ce-1dd2-11b2-9b42-504244454a4a</delorme:objectid>
		<delorme:pnsymbol>1</delorme:pnsymbol>
	</extensions>
</wpt>
<wpt lat="41.554120541" lon="-113.740727425">
	<ele>1879.757446</ele>
	<time>2016-05-17T01:08:25Z</time>
	<name>ERINAU GC </name>
	<sym>Red Map Pin</sym>
	<extensions>
		<delorme:objectid>22f7e2d2-1dd2-11b2-8f58-504244454a4a</delorme:objectid>
		<delorme:pnsymbol>1</delorme:pnsymbol>
	</extensions>
</wpt>
<wpt lat="37.670395374" lon="-113.854433298">
	<ele>1769.592041</ele>
	<time>2016-05-12T19:21:22Z</time>
	<name>ERIOG</name>
	<sym>Red Map Pin</sym>
	<extensions>
		<delorme:objectid>20bb8fc8-1dd2-11b2-8c23-504244454a4a</delorme:objectid>
		<delorme:pnsymbol>1</delorme:pnsymbol>
	</extensions>
</wpt>
<wpt lat="37.693511963" lon="-113.879887342">
	<ele>1694.934448</ele>
	<time>2016-05-12T19:49:36Z</time>
	<name>ERIOG 002</name>
	<sym>Red Map Pin</sym>
	<extensions>
		<delorme:objectid>293c07b8-1dd2-11b2-88cd-504244454a4a</delorme:objectid>
		<delorme:pnsymbol>1</delorme:pnsymbol>
	</extensions>
</wpt>
<wpt lat="37.173599958" lon="-112.602499962">
	<ele>1834.604248</ele>
	<time>2016-05-09T19:01:00Z</time>
	<name>GAYDEC</name>
	<sym>Red Map Pin</sym>
	<extensions>
		<delorme:objectid>194c634b-9b80-471c-bccb-1466339a476f</delorme:objectid>
		<delorme:pnsymbol>1</delorme:pnsymbol>
	</extensions>
</wpt>
<wpt lat="37.016111016" lon="-110.853888035">
	<ele>2550.289307</ele>
	<time>2016-05-09T19:01:00Z</time>
	<name>GAYRAC</name>
	<sym>Red Map Pin</sym>
	<extensions>
		<delorme:objectid>1e36c223-479f-4145-ac46-139fe9135cfa</delorme:objectid>
		<delorme:pnsymbol>1</delorme:pnsymbol>
	</extensions>
</wpt>
<wpt lat="39.700919986" lon="-114.032209992">
	<ele>2109.627197</ele>
	<time>2016-05-09T19:01:00Z</time>
	<name>GEUMAC</name>
	<sym>Red Map Pin</sym>
	<extensions>
		<delorme:objectid>f312a98d-8f65-4b2f-b2e5-51a9435c0c1f</delorme:objectid>
		<delorme:pnsymbol>1</delorme:pnsymbol>
	</extensions>
</wpt>
<wpt lat="40.210128665" lon="-109.269151092">
	<time>2016-07-21T18:50:01Z</time>
	<name>Grindselia RR</name>
	<sym>Blue Map Pin</sym>
	<extensions>
		<delorme:objectid>14748710-1dd2-11b2-8f87-504244454a4a</delorme:objectid>
		<delorme:pnsymbol>9</delorme:pnsymbol>
	</extensions>
</wpt>
<wpt lat="40.515300035" lon="-109.527799964">
	<ele>1670.757080</ele>
	<time>2016-05-09T19:01:00Z</time>
	<name>GRISQU1</name>
	<sym>Red Map Pin</sym>
	<extensions>
		<delorme:objectid>2f46d2c7-7b58-49e8-969d-7295f98fa456</delorme:objectid>
		<delorme:pnsymbol>1</delorme:pnsymbol>
	</extensions>
</wpt>
<wpt lat="39.358381033" lon="-110.943814039">
	<ele>1802.987915</ele>
	<time>2016-05-09T19:01:00Z</time>
	<name>GRISQU2</name>
	<sym>Red Map Pin</sym>
	<extensions>
		<delorme:objectid>486476ea-220d-4da2-83ed-ae045959f078</delorme:objectid>
		<delorme:pnsymbol>1</delorme:pnsymbol>
	</extensions>
</wpt>
<wpt lat="37.823632956" lon="-112.008016944">
	<ele>2310.710938</ele>
	<time>2016-05-09T19:01:00Z</time>
	<name>GRISQU3</name>
	<sym>Red Map Pin</sym>
	<extensions>
		<delorme:objectid>d1448375-3f23-4798-afd7-cb033d4312bd</delorme:objectid>
		<delorme:pnsymbol>1</delorme:pnsymbol>
	</extensions>
</wpt>
<wpt lat="41.454234958" lon="-113.889162779">
	<ele>0.000000</ele>
	<time>2016-05-16T22:38:55Z</time>
	<name>HECO and KRLA</name>
	<sym>Red Map Pin</sym>
	<extensions>
		<delorme:objectid>34d5cc44-1dd2-11b2-973d-504244454a4a</delorme:objectid>
		<delorme:pnsymbol>1</delorme:pnsymbol>
	</extensions>
</wpt>
<wpt lat="37.961207628" lon="-113.076611996">
	<ele>1794.250000</ele>
	<time>2016-05-25T18:22:30Z</time>
	<name>HESCOM Lost Springs</name>
	<sym>Red Map Pin</sym>
	<extensions>
		<delorme:objectid>256bc8bc-1dd2-11b2-9bea-504244454a4a</delorme:objectid>
		<delorme:pnsymbol>1</delorme:pnsymbol>
	</extensions>
</wpt>
<wpt lat="37.964972138" lon="-113.074740767">
	<ele>1799.525879</ele>
	<time>2016-05-25T18:39:53Z</time>
	<name>HESCOM Lost Springs 002</name>
	<sym>Red Map Pin</sym>
	<extensions>
		<delorme:objectid>3369593e-1dd2-11b2-86eb-504244454a4a</delorme:objectid>
		<delorme:pnsymbol>1</delorme:pnsymbol>
	</extensions>
</wpt>
<wpt lat="37.992328525" lon="-113.163213968">
	<ele>1656.403564</ele>
	<time>2016-06-08T23:41:34Z</time>
	<name>HESCOM Mud Spring</name>
	<sym>Red Map Pin</sym>
	<extensions>
		<delorme:objectid>284f563e-1dd2-11b2-9124-504244454a4a</delorme:objectid>
		<delorme:pnsymbol>1</delorme:pnsymbol>
	</extensions>
</wpt>
<wpt lat="38.187870979" lon="-113.658478498">
	<ele>1907.428711</ele>
	<time>2016-06-09T15:56:00Z</time>
	<name>HESCOM Pine Val S</name>
	<sym>Red Map Pin</sym>
	<extensions>
		<delorme:objectid>140527bc-1dd2-11b2-8620-504244454a4a</delorme:objectid>
		<delorme:pnsymbol>1</delorme:pnsymbol>
	</extensions>
</wpt>
<wpt lat="40.105522871" lon="-112.658089042">
	<ele>1601.862793</ele>
	<time>2016-05-31T18:49:23Z</time>
	<name>HESCOM Pony</name>
	<sym>Red Map Pin</sym>
	<extensions>
		<delorme:objectid>217ed03c-1dd2-11b2-809d-504244454a4a</delorme:objectid>
		<delorme:pnsymbol>1</delorme:pnsymbol>
	</extensions>
</wpt>
<wpt lat="39.931222916" lon="-109.090330005">
	<time>2016-07-20T23:25:59Z</time>
	<name>Ipomopsis Compact RR</name>
	<sym>Dark Turquoise Map Pin</sym>
	<extensions>
		<delorme:objectid>36f8f762-1dd2-11b2-9999-504244454a4a</delorme:objectid>
		<delorme:pnsymbol>8</delorme:pnsymbol>
	</extensions>
</wpt>
<wpt lat="41.577427149" lon="-113.751726151">
	<time>2016-06-14T15:49:41Z</time>
	<name>Ipomopsis RR</name>
	<sym>Dark Turquoise Map Pin</sym>
	<extensions>
		<delorme:objectid>2c7a7950-1dd2-11b2-95d4-504244454a4a</delorme:objectid>
		<delorme:pnsymbol>8</delorme:pnsymbol>
	</extensions>
</wpt>
<wpt lat="41.659510374" lon="-113.745141983">
	<time>2016-06-14T20:23:15Z</time>
	<name>Iris missouriensis RR</name>
	<sym>Dark Turquoise Map Pin</sym>
	<extensions>
		<delorme:objectid>1d0258d0-1dd2-11b2-8843-504244454a4a</delorme:objectid>
		<delorme:pnsymbol>8</delorme:pnsymbol>
	</extensions>
</wpt>
<wpt lat="41.825141788" lon="-113.650407314">
	<time>2016-06-15T00:34:08Z</time>
	<name>Iris missouriensisRR</name>
	<sym>Dark Turquoise Map Pin</sym>
	<extensions>
		<delorme:objectid>189d2252-1dd2-11b2-889d-504244454a4a</delorme:objectid>
		<delorme:pnsymbol>8</delorme:pnsymbol>
	</extensions>
</wpt>
<wpt lat="37.693380237" lon="-113.879464269">
	<time>2016-06-23T00:17:06Z</time>
	<name>Knap site</name>
	<sym>Red Map Pin</sym>
	<extensions>
		<delorme:objectid>1754783c-1dd2-11b2-9ca8-504244454a4a</delorme:objectid>
		<delorme:pnsymbol>1</delorme:pnsymbol>
	</extensions>
</wpt>
<wpt lat="41.685467005" lon="-113.787117004">
	<ele>2004.013184</ele>
	<time>2016-05-09T19:01:00Z</time>
	<name>KOEMAC1</name>
	<sym>Red Map Pin</sym>
	<extensions>
		<delorme:objectid>17e92183-ccfb-4b18-b180-27c21a675b4f</delorme:objectid>
		<delorme:pnsymbol>1</delorme:pnsymbol>
	</extensions>
</wpt>
<wpt lat="41.633332968" lon="-111.083333015">
	<ele>2210.802979</ele>
	<time>2016-05-09T19:01:00Z</time>
	<name>KOEMAC2</name>
	<sym>Red Map Pin</sym>
	<extensions>
		<delorme:objectid>72e7b89b-de41-4d98-b89a-60d95236390a</delorme:objectid>
		<delorme:pnsymbol>1</delorme:pnsymbol>
	</extensions>
</wpt>
<wpt lat="38.444722056" lon="-111.747778058">
	<ele>2525.410400</ele>
	<time>2016-05-09T19:01:00Z</time>
	<name>KOEMAC3</name>
	<sym>Red Map Pin</sym>
	<extensions>
		<delorme:objectid>b58939b2-708d-472b-b74d-e3f484141399</delorme:objectid>
		<delorme:pnsymbol>1</delorme:pnsymbol>
	</extensions>
</wpt>
<wpt lat="41.588070154" lon="-113.782707334">
	<time>2016-06-14T17:28:10Z</time>
	<name>kw16-43</name>
	<sym>Yellow Map Pin</sym>
	<extensions>
		<delorme:objectid>198c9df0-1dd2-11b2-95d6-504244454a4a</delorme:objectid>
		<delorme:pnsymbol>3</delorme:pnsymbol>
	</extensions>
</wpt>
<wpt lat="37.798856020" lon="-113.924142003">
	<ele>1648.342651</ele>
	<time>2016-05-09T19:01:00Z</time>
	<name>LEPDEN1</name>
	<sym>Red Map Pin</sym>
	<extensions>
		<delorme:objectid>ec446312-6fc5-4f9f-b369-77ac54724220</delorme:objectid>
		<delorme:pnsymbol>1</delorme:pnsymbol>
	</extensions>
</wpt>
<wpt lat="37.508505940" lon="-113.193341970">
	<ele>1766.953491</ele>
	<time>2016-05-09T19:01:00Z</time>
	<name>LEPDEN2</name>
	<sym>Red Map Pin</sym>
	<extensions>
		<delorme:objectid>f43e06d7-0d43-402b-bfe5-076e651d4b54</delorme:objectid>
		<delorme:pnsymbol>1</delorme:pnsymbol>
	</extensions>
</wpt>
<wpt lat="39.853199959" lon="-111.705729961">
	<ele>2861.150635</ele>
	<time>2016-05-09T19:01:00Z</time>
	<name>LEPHAR</name>
	<sym>Red Map Pin</sym>
	<extensions>
		<delorme:objectid>9883732f-fb51-4fcf-811c-c0bb78fe11eb</delorme:objectid>
		<delorme:pnsymbol>1</delorme:pnsymbol>
	</extensions>
</wpt>
<wpt lat="37.947373390" lon="-113.070865393">
	<ele>1756.001465</ele>
	<time>2016-05-25T17:50:57Z</time>
	<name>LINLEW Mud Springs</name>
	<sym>Red Map Pin</sym>
	<extensions>
		<delorme:objectid>35bd4b46-1dd2-11b2-9e1f-504244454a4a</delorme:objectid>
		<delorme:pnsymbol>1</delorme:pnsymbol>
	</extensions>
</wpt>
<wpt lat="39.939516306" lon="-109.073953867">
	<time>2016-07-20T21:45:40Z</time>
	<name>LINLEW RR</name>
	<sym>Dark Turquoise Map Pin</sym>
	<extensions>
		<delorme:objectid>2b9ca7e2-1dd2-11b2-9998-504244454a4a</delorme:objectid>
		<delorme:pnsymbol>8</delorme:pnsymbol>
	</extensions>
</wpt>
<wpt lat="41.670998335" lon="-113.822583437">
	<time>2016-06-29T22:23:49Z</time>
	<name>Linum RR?</name>
	<sym>Dark Turquoise Map Pin</sym>
	<extensions>
		<delorme:objectid>3105f378-1dd2-11b2-8724-504244454a4a</delorme:objectid>
		<delorme:pnsymbol>8</delorme:pnsymbol>
	</extensions>
</wpt>
<wpt lat="37.425554991" lon="-113.234166026">
	<ele>1562.566284</ele>
	<time>2016-05-09T19:01:00Z</time>
	<name>LOMNEV1</name>
	<sym>Red Map Pin</sym>
	<extensions>
		<delorme:objectid>e3f57114-faed-451c-a6d7-bb53848d0f63</delorme:objectid>
		<delorme:pnsymbol>1</delorme:pnsymbol>
	</extensions>
</wpt>
<wpt lat="38.072610974" lon="-110.847388983">
	<ele>2564.861572</ele>
	<time>2016-05-09T19:01:00Z</time>
	<name>LOMNEV2</name>
	<sym>Red Map Pin</sym>
	<extensions>
		<delorme:objectid>aeda8d81-8543-4fcb-b6a5-9f74eb7d5c5f</delorme:objectid>
		<delorme:pnsymbol>1</delorme:pnsymbol>
	</extensions>
</wpt>
<wpt lat="37.093880057" lon="-110.813199997">
	<ele>1636.891846</ele>
	<time>2016-05-09T19:01:00Z</time>
	<name>LOMNEV3</name>
	<sym>Red Map Pin</sym>
	<extensions>
		<delorme:objectid>11863fc6-8308-4e0a-a1c6-3d437ef539a6</delorme:objectid>
		<delorme:pnsymbol>1</delorme:pnsymbol>
	</extensions>
</wpt>
<wpt lat="41.620555043" lon="-112.546666026">
	<ele>1518.838135</ele>
	<time>2016-05-09T19:01:00Z</time>
	<name>LOMTRI1</name>
	<sym>Red Map Pin</sym>
	<extensions>
		<delorme:objectid>7ab818d9-ffc8-420f-aa14-284bd0ddd5b2</delorme:objectid>
		<delorme:pnsymbol>1</delorme:pnsymbol>
	</extensions>
</wpt>
<wpt lat="41.986567020" lon="-113.684932947">
	<ele>1791.976685</ele>
	<time>2016-05-09T19:01:00Z</time>
	<name>LOMTRI2</name>
	<sym>Red Map Pin</sym>
	<extensions>
		<delorme:objectid>da02e15a-f2bf-4eee-8ce5-b1fb8f8cfd0f</delorme:objectid>
		<delorme:pnsymbol>1</delorme:pnsymbol>
	</extensions>
</wpt>
<wpt lat="39.853055954" lon="-113.865833044">
	<ele>2540.931641</ele>
	<time>2016-05-09T19:01:00Z</time>
	<name>LUPARB</name>
	<sym>Red Map Pin</sym>
	<extensions>
		<delorme:objectid>c82cc7f5-10ff-4c0e-ba29-aae4b9653211</delorme:objectid>
		<delorme:pnsymbol>1</delorme:pnsymbol>
	</extensions>
</wpt>
<wpt lat="41.661666989" lon="-113.741111040">
	<ele>2312.306885</ele>
	<time>2016-05-09T19:01:00Z</time>
	<name>LUPARG1</name>
	<sym>Red Map Pin</sym>
	<extensions>
		<delorme:objectid>a6e78fcd-30bf-4e20-bca1-45b7ffa07056</delorme:objectid>
		<delorme:pnsymbol>1</delorme:pnsymbol>
	</extensions>
</wpt>
<wpt lat="40.515300035" lon="-109.527799964">
	<ele>1670.757080</ele>
	<time>2016-05-09T19:01:00Z</time>
	<name>LUPARG2</name>
	<sym>Red Map Pin</sym>
	<extensions>
		<delorme:objectid>6a03049d-23d8-459a-8749-f94944b8ff44</delorme:objectid>
		<delorme:pnsymbol>1</delorme:pnsymbol>
	</extensions>
</wpt>
<wpt lat="40.105342746" lon="-109.311784029">
	<time>2016-07-21T20:23:30Z</time>
	<name>Lupine desert RR</name>
	<sym>Blue Map Pin</sym>
	<extensions>
		<delorme:objectid>25aa19fa-1dd2-11b2-9c47-504244454a4a</delorme:objectid>
		<delorme:pnsymbol>9</delorme:pnsymbol>
	</extensions>
</wpt>
<wpt lat="41.564037561" lon="-113.749202609">
	<time>2016-06-14T15:43:14Z</time>
	<name>Lupine RR</name>
	<sym>Dark Turquoise Map Pin</sym>
	<extensions>
		<delorme:objectid>1c2168a2-1dd2-11b2-95d3-504244454a4a</delorme:objectid>
		<delorme:pnsymbol>8</delorme:pnsymbol>
	</extensions>
</wpt>
<wpt lat="37.999329209" lon="-113.081865549">
	<ele>1866.425659</ele>
	<time>2016-05-25T18:47:15Z</time>
	<name>Lupinus RR</name>
	<sym>Red Map Pin</sym>
	<extensions>
		<delorme:objectid>1cab69e4-1dd2-11b2-8eff-504244454a4a</delorme:objectid>
		<delorme:pnsymbol>1</delorme:pnsymbol>
	</extensions>
</wpt>
<wpt lat="37.996780753" lon="-113.085197210">
	<ele>1852.036865</ele>
	<time>2016-05-25T18:52:03Z</time>
	<name>Lupinus RR 002</name>
	<sym>Red Map Pin</sym>
	<extensions>
		<delorme:objectid>15d75c7c-1dd2-11b2-93b4-504244454a4a</delorme:objectid>
		<delorme:pnsymbol>1</delorme:pnsymbol>
	</extensions>
</wpt>
<wpt lat="41.255300045" lon="-114.014700055">
	<ele>2186.961426</ele>
	<time>2016-05-09T19:01:00Z</time>
	<name>MACCAN1</name>
	<sym>Red Map Pin</sym>
	<extensions>
		<delorme:objectid>7f9db517-d04e-4374-a70c-e32e7b4d071e</delorme:objectid>
		<delorme:pnsymbol>1</delorme:pnsymbol>
	</extensions>
</wpt>
<wpt lat="38.288200021" lon="-113.859699965">
	<ele>2320.205811</ele>
	<time>2016-05-09T19:01:00Z</time>
	<name>MACCAN2</name>
	<sym>Red Map Pin</sym>
	<extensions>
		<delorme:objectid>1cc67dae-2af2-401d-be73-bd4bfd5ba52b</delorme:objectid>
		<delorme:pnsymbol>1</delorme:pnsymbol>
	</extensions>
</wpt>
<wpt lat="39.117300034" lon="-112.568400025">
	<ele>1449.874390</ele>
	<time>2016-05-09T19:01:00Z</time>
	<name>MACCAN3</name>
	<sym>Red Map Pin</sym>
	<extensions>
		<delorme:objectid>de12d045-a80b-47f2-ac38-e4a3c8a57750</delorme:objectid>
		<delorme:pnsymbol>1</delorme:pnsymbol>
	</extensions>
</wpt>
<wpt lat="40.316486001" lon="-111.314170003">
	<ele>2743.414063</ele>
	<time>2016-05-09T19:01:00Z</time>
	<name>MERARI1</name>
	<sym>Red Map Pin</sym>
	<extensions>
		<delorme:objectid>6834b527-76e4-456c-8958-bdb76ffe1914</delorme:objectid>
		<delorme:pnsymbol>1</delorme:pnsymbol>
	</extensions>
</wpt>
<wpt lat="38.017747045" lon="-112.509603024">
	<ele>2197.751221</ele>
	<time>2016-05-09T19:01:00Z</time>
	<name>MERARI2</name>
	<sym>Red Map Pin</sym>
	<extensions>
		<delorme:objectid>2d660dd3-bfba-48f9-afe6-a3b7e0485fc4</delorme:objectid>
		<delorme:pnsymbol>1</delorme:pnsymbol>
	</extensions>
</wpt>
<wpt lat="41.856111050" lon="-112.819722056">
	<ele>1417.766479</ele>
	<time>2016-05-09T19:01:00Z</time>
	<name>MERBRE</name>
	<sym>Red Map Pin</sym>
	<extensions>
		<delorme:objectid>cbbaa3fe-0aa6-4af1-89ae-50dcfebd36e2</delorme:objectid>
		<delorme:pnsymbol>1</delorme:pnsymbol>
	</extensions>
</wpt>
<wpt lat="39.750555038" lon="-113.898610950">
	<ele>2290.844238</ele>
	<time>2016-05-09T19:01:00Z</time>
	<name>MICGRA1</name>
	<sym>Red Map Pin</sym>
	<extensions>
		<delorme:objectid>f50e8089-5fc5-4b9c-8173-182695771b84</delorme:objectid>
		<delorme:pnsymbol>1</delorme:pnsymbol>
	</extensions>
</wpt>
<wpt lat="40.499166012" lon="-112.436944008">
	<ele>1506.721924</ele>
	<time>2016-05-09T19:01:00Z</time>
	<name>MICGRA2</name>
	<sym>Red Map Pin</sym>
	<extensions>
		<delorme:objectid>b0cb65ae-0160-49b5-ab47-dcd63f8236f6</delorme:objectid>
		<delorme:pnsymbol>1</delorme:pnsymbol>
	</extensions>
</wpt>
<wpt lat="41.878100038" lon="-111.371899962">
	<ele>1885.677979</ele>
	<time>2016-05-09T19:01:00Z</time>
	<name>MICNUT1</name>
	<sym>Red Map Pin</sym>
	<extensions>
		<delorme:objectid>a27b283e-e425-4d62-a40c-80b4abae260a</delorme:objectid>
		<delorme:pnsymbol>1</delorme:pnsymbol>
	</extensions>
</wpt>
<wpt lat="39.853055954" lon="-113.864439964">
	<ele>2507.037354</ele>
	<time>2016-05-09T19:01:00Z</time>
	<name>MICNUT2</name>
	<sym>Red Map Pin</sym>
	<extensions>
		<delorme:objectid>a3dd8ae9-7c44-4f8f-82ff-7a13bab9c674</delorme:objectid>
		<delorme:pnsymbol>1</delorme:pnsymbol>
	</extensions>
</wpt>
<wpt lat="41.620555043" lon="-112.546666026">
	<ele>1518.838135</ele>
	<time>2016-05-09T19:01:00Z</time>
	<name>MICTRO</name>
	<sym>Red Map Pin</sym>
	<extensions>
		<delorme:objectid>87a0b102-ccfc-4a21-9c9f-7d75559901de</delorme:objectid>
		<delorme:pnsymbol>1</delorme:pnsymbol>
	</extensions>
</wpt>
<wpt lat="41.658118367" lon="-113.759476900">
	<time>2016-06-29T21:50:48Z</time>
	<name>Mimulus RR</name>
	<sym>Dark Turquoise Map Pin</sym>
	<extensions>
		<delorme:objectid>308e18c6-1dd2-11b2-8721-504244454a4a</delorme:objectid>
		<delorme:pnsymbol>8</delorme:pnsymbol>
	</extensions>
</wpt>
<wpt lat="40.088777423" lon="-109.313696980">
	<time>2016-07-21T20:39:48Z</time>
	<name>Mini mt</name>
	<sym>Red Flag</sym>
	<extensions>
		<delorme:objectid>304c1868-1dd2-11b2-9c47-504244454a4a</delorme:objectid>
		<delorme:pnsymbol>13</delorme:pnsymbol>
	</extensions>
</wpt>
<wpt lat="40.550549984" lon="-109.181579947">
	<ele>1704.400391</ele>
	<time>2016-05-09T19:01:00Z</time>
	<name>MONNUT1</name>
	<sym>Red Map Pin</sym>
	<extensions>
		<delorme:objectid>744b3b11-0a94-4dc5-9be0-5fed5d4b0a42</delorme:objectid>
		<delorme:pnsymbol>1</delorme:pnsymbol>
	</extensions>
</wpt>
<wpt lat="38.207509995" lon="-111.865769982">
	<ele>2822.643311</ele>
	<time>2016-05-09T19:01:00Z</time>
	<name>MONNUT2</name>
	<sym>Red Map Pin</sym>
	<extensions>
		<delorme:objectid>b2a4dd20-d412-4c92-9763-32279d81b9c7</delorme:objectid>
		<delorme:pnsymbol>1</delorme:pnsymbol>
	</extensions>
</wpt>
<wpt lat="38.994040012" lon="-111.935539961">
	<ele>1741.497314</ele>
	<time>2016-05-09T19:01:00Z</time>
	<name>MONNUT3</name>
	<sym>Red Map Pin</sym>
	<extensions>
		<delorme:objectid>31e81138-b6bf-458e-94de-0cc3183e69ad</delorme:objectid>
		<delorme:pnsymbol>1</delorme:pnsymbol>
	</extensions>
</wpt>
<wpt lat="40.218260765" lon="-109.235962391">
	<ele>1754.064575</ele>
	<time>2016-06-08T00:14:41Z</time>
	<name>Morning glory RR</name>
	<sym>Red Map Pin</sym>
	<extensions>
		<delorme:objectid>2c35afe6-1dd2-11b2-86c1-504244454a4a</delorme:objectid>
		<delorme:pnsymbol>1</delorme:pnsymbol>
	</extensions>
</wpt>
<wpt lat="41.557686090" lon="-113.750349522">
	<time>2016-06-14T15:47:46Z</time>
	<name>Nictag RR</name>
	<sym>Dark Turquoise Map Pin</sym>
	<extensions>
		<delorme:objectid>2ef73c04-1dd2-11b2-95d3-504244454a4a</delorme:objectid>
		<delorme:pnsymbol>8</delorme:pnsymbol>
	</extensions>
</wpt>
<wpt lat="41.737863064" lon="-111.196495175">
	<time>2016-06-15T22:06:41Z</time>
	<name>Nictag? RR</name>
	<sym>Red Map Pin</sym>
	<extensions>
		<delorme:objectid>2c884738-1dd2-11b2-9b1f-504244454a4a</delorme:objectid>
		<delorme:pnsymbol>1</delorme:pnsymbol>
	</extensions>
</wpt>
<wpt lat="38.726011992" lon="-113.339797020">
	<ele>1438.562988</ele>
	<time>2016-06-02T15:52:49Z</time>
	<name>OEPA Crys Peak Rd</name>
	<sym>Red Map Pin</sym>
	<extensions>
		<delorme:objectid>31275c3e-1dd2-11b2-8c48-504244454a4a</delorme:objectid>
		<delorme:pnsymbol>1</delorme:pnsymbol>
	</extensions>
</wpt>
<wpt lat="38.713768959" lon="-113.304615378">
	<ele>1434.067139</ele>
	<time>2016-06-02T15:55:52Z</time>
	<name>OEPA Crys Peak Rd 002</name>
	<sym>Red Map Pin</sym>
	<extensions>
		<delorme:objectid>3316f37e-1dd2-11b2-8289-504244454a4a</delorme:objectid>
		<delorme:pnsymbol>1</delorme:pnsymbol>
	</extensions>
</wpt>
<wpt lat="38.886862397" lon="-113.365352869">
	<ele>1490.350586</ele>
	<time>2016-06-02T21:35:14Z</time>
	<name>OEPA Tule Val</name>
	<sym>Red Map Pin</sym>
	<extensions>
		<delorme:objectid>1c430c50-1dd2-11b2-8f7c-504244454a4a</delorme:objectid>
		<delorme:pnsymbol>1</delorme:pnsymbol>
	</extensions>
</wpt>
<wpt lat="38.906830907" lon="-113.364565849">
	<ele>1463.024902</ele>
	<time>2016-06-02T22:10:22Z</time>
	<name>OEPA Tule Val 002</name>
	<sym>Red Map Pin</sym>
	<extensions>
		<delorme:objectid>213016d6-1dd2-11b2-9651-504244454a4a</delorme:objectid>
		<delorme:pnsymbol>1</delorme:pnsymbol>
	</extensions>
</wpt>
<wpt lat="39.956253290" lon="-109.091865420">
	<time>2016-07-20T22:08:00Z</time>
	<name>PenFlor? RR</name>
	<sym>Dark Turquoise Map Pin</sym>
	<extensions>
		<delorme:objectid>13d3f26e-1dd2-11b2-9999-504244454a4a</delorme:objectid>
		<delorme:pnsymbol>8</delorme:pnsymbol>
	</extensions>
</wpt>
<wpt lat="37.673447967" lon="-113.431365967">
	<ele>1501.244263</ele>
	<time>2016-07-22T18:59:22Z</time>
	<name>PENPIN 1</name>
	<sym>Turquoise Dot</sym>
	<extensions>
		<delorme:objectid>20a38d9c-1dd2-11b2-9c48-504244454a4a</delorme:objectid>
		<delorme:pnsymbol>31</delorme:pnsymbol>
	</extensions>
</wpt>
<wpt lat="38.018228054" lon="-113.068452001">
	<time>2016-06-22T01:44:17Z</time>
	<name>Penstemon palmeri RR</name>
	<sym>Red Map Pin</sym>
	<extensions>
		<delorme:objectid>1de9689c-1dd2-11b2-88ab-504244454a4a</delorme:objectid>
		<delorme:pnsymbol>1</delorme:pnsymbol>
	</extensions>
</wpt>
<wpt lat="39.942005396" lon="-109.079439521">
	<time>2016-07-20T21:55:47Z</time>
	<name>Penstemon RR</name>
	<sym>Dark Turquoise Map Pin</sym>
	<extensions>
		<delorme:objectid>2fdfdb76-1dd2-11b2-9998-504244454a4a</delorme:objectid>
		<delorme:pnsymbol>8</delorme:pnsymbol>
	</extensions>
</wpt>
<wpt lat="41.661666989" lon="-113.741111040">
	<ele>2312.306885</ele>
	<time>2016-05-09T19:01:00Z</time>
	<name>PHLLON1</name>
	<sym>Red Map Pin</sym>
	<extensions>
		<delorme:objectid>f2ad33a8-8c6e-437f-86f1-07eac54b6506</delorme:objectid>
		<delorme:pnsymbol>1</delorme:pnsymbol>
	</extensions>
</wpt>
<wpt lat="41.820976973" lon="-113.225015044">
	<ele>1609.243652</ele>
	<time>2016-05-09T19:01:00Z</time>
	<name>PHLLON2</name>
	<sym>Red Map Pin</sym>
	<extensions>
		<delorme:objectid>5b3d7fc1-c021-49e5-9f8e-92a53773cc0c</delorme:objectid>
		<delorme:pnsymbol>1</delorme:pnsymbol>
	</extensions>
</wpt>
<wpt lat="39.750555038" lon="-113.898610950">
	<ele>2290.844238</ele>
	<time>2016-05-09T19:01:00Z</time>
	<name>PHLLON3</name>
	<sym>Red Map Pin</sym>
	<extensions>
		<delorme:objectid>a388d217-2996-486b-8469-39bb7498f16f</delorme:objectid>
		<delorme:pnsymbol>1</delorme:pnsymbol>
	</extensions>
</wpt>
<wpt lat="37.657716632" lon="-113.806908846">
	<ele>1710.463867</ele>
	<time>2016-05-12T18:49:51Z</time>
	<name>PLAPAT Modena Rd</name>
	<sym>Red Map Pin</sym>
	<extensions>
		<delorme:objectid>3272c89e-1dd2-11b2-85d7-504244454a4a</delorme:objectid>
		<delorme:pnsymbol>1</delorme:pnsymbol>
	</extensions>
</wpt>
<wpt lat="37.698636174" lon="-113.900181174">
	<ele>1696.521484</ele>
	<time>2016-05-12T19:56:28Z</time>
	<name>Plop Hat!</name>
	<sym>Red Map Pin</sym>
	<extensions>
		<delorme:objectid>249e8582-1dd2-11b2-8af6-504244454a4a</delorme:objectid>
		<delorme:pnsymbol>1</delorme:pnsymbol>
	</extensions>
</wpt>
<wpt lat="39.320010900" lon="-113.575618386">
	<ele>1411.108887</ele>
	<time>2016-06-01T20:29:45Z</time>
	<name>PLUJAM Ant Springs</name>
	<sym>Red Map Pin</sym>
	<extensions>
		<delorme:objectid>2e78263a-1dd2-11b2-850d-504244454a4a</delorme:objectid>
		<delorme:pnsymbol>1</delorme:pnsymbol>
	</extensions>
</wpt>
<wpt lat="38.488035679" lon="-113.348645091">
	<ele>1541.950439</ele>
	<time>2016-06-02T18:48:09Z</time>
	<name>PLUJAM Wah Val </name>
	<sym>Red Map Pin</sym>
	<extensions>
		<delorme:objectid>18e64a4a-1dd2-11b2-9359-504244454a4a</delorme:objectid>
		<delorme:pnsymbol>1</delorme:pnsymbol>
	</extensions>
</wpt>
<wpt lat="40.339166045" lon="-112.599444032">
	<ele>1902.728882</ele>
	<time>2016-05-09T19:01:00Z</time>
	<name>PLUJAM1</name>
	<sym>Red Map Pin</sym>
	<extensions>
		<delorme:objectid>7f33c582-9138-48f5-805e-eb431f8c8f95</delorme:objectid>
		<delorme:pnsymbol>1</delorme:pnsymbol>
	</extensions>
</wpt>
<wpt lat="38.609444022" lon="-112.811388016">
	<ele>1791.584961</ele>
	<time>2016-05-09T19:01:00Z</time>
	<name>PLUJAM2</name>
	<sym>Red Map Pin</sym>
	<extensions>
		<delorme:objectid>1b3fa50e-a9fd-41e5-9abe-b9dfe5857844</delorme:objectid>
		<delorme:pnsymbol>1</delorme:pnsymbol>
	</extensions>
</wpt>
<wpt lat="40.068896055" lon="-109.318675041">
	<ele>1528.640015</ele>
	<time>2016-05-09T19:01:00Z</time>
	<name>PLUJAM3</name>
	<sym>Red Map Pin</sym>
	<extensions>
		<delorme:objectid>b9a8b041-bfd9-4743-be94-a3c97b90c9b3</delorme:objectid>
		<delorme:pnsymbol>1</delorme:pnsymbol>
	</extensions>
</wpt>
<wpt lat="41.626426578" lon="-113.500154614">
	<ele>1578.173096</ele>
	<time>2016-05-17T16:46:36Z</time>
	<name>POASEC Emigrant</name>
	<sym>Red Map Pin</sym>
	<extensions>
		<delorme:objectid>295509ac-1dd2-11b2-9f64-504244454a4a</delorme:objectid>
		<delorme:pnsymbol>1</delorme:pnsymbol>
	</extensions>
</wpt>
<wpt lat="41.625570178" lon="-113.481507182">
	<ele>1572.548706</ele>
	<time>2016-05-17T16:54:27Z</time>
	<name>POASEC Emigrant 002</name>
	<sym>Red Map Pin</sym>
	<extensions>
		<delorme:objectid>24146abe-1dd2-11b2-8904-504244454a4a</delorme:objectid>
		<delorme:pnsymbol>1</delorme:pnsymbol>
	</extensions>
</wpt>
<wpt lat="38.031969547" lon="-113.610085487">
	<ele>1699.670654</ele>
	<time>2016-06-23T15:55:15Z</time>
	<name>Poppy RR</name>
	<sym>Red Map Pin</sym>
	<extensions>
		<delorme:objectid>1cabffa8-1dd2-11b2-8229-504244454a4a</delorme:objectid>
		<delorme:pnsymbol>1</delorme:pnsymbol>
	</extensions>
</wpt>
<wpt lat="40.126632094" lon="-112.587805033">
	<time>2016-06-28T21:20:44Z</time>
	<name>PoppyY RR</name>
	<sym>Red Map Pin</sym>
	<extensions>
		<delorme:objectid>2e4a681c-1dd2-11b2-9179-504244454a4a</delorme:objectid>
		<delorme:pnsymbol>1</delorme:pnsymbol>
	</extensions>
</wpt>
<wpt lat="41.844204664" lon="-113.797875285">
	<time>2016-06-29T23:08:30Z</time>
	<name>Populus tremuloides RR</name>
	<sym>Dark Turquoise Map Pin</sym>
	<extensions>
		<delorme:objectid>25e1a870-1dd2-11b2-8726-504244454a4a</delorme:objectid>
		<delorme:pnsymbol>8</delorme:pnsymbol>
	</extensions>
</wpt>
<wpt lat="40.127188087" lon="-112.631600618">
	<ele>0.000000</ele>
	<time>2016-05-31T18:44:30Z</time>
	<name>PPoppy RR</name>
	<sym>Red Map Pin</sym>
	<extensions>
		<delorme:objectid>2572b3b6-1dd2-11b2-98cb-504244454a4a</delorme:objectid>
		<delorme:pnsymbol>1</delorme:pnsymbol>
	</extensions>
</wpt>
<wpt lat="38.005829811" lon="-113.478726149">
	<time>2016-06-09T01:08:11Z</time>
	<name>Ppoppy RR 002</name>
	<sym>Red Map Pin</sym>
	<extensions>
		<delorme:objectid>1a66e6e0-1dd2-11b2-9d2b-504244454a4a</delorme:objectid>
		<delorme:pnsymbol>1</delorme:pnsymbol>
	</extensions>
</wpt>
<wpt lat="38.039848447" lon="-113.618100524">
	<ele>1704.022217</ele>
	<time>2016-06-09T15:27:48Z</time>
	<name>Ppoppy RR 003</name>
	<sym>Red Map Pin</sym>
	<extensions>
		<delorme:objectid>30a2ba4c-1dd2-11b2-8ccb-504244454a4a</delorme:objectid>
		<delorme:pnsymbol>1</delorme:pnsymbol>
	</extensions>
</wpt>
<wpt lat="38.218349099" lon="-112.891797066">
	<time>2016-06-08T21:58:43Z</time>
	<name>Prickily poppy 3</name>
	<sym>Red Map Pin</sym>
	<extensions>
		<delorme:objectid>2d3b0c88-1dd2-11b2-8e39-504244454a4a</delorme:objectid>
		<delorme:pnsymbol>1</delorme:pnsymbol>
	</extensions>
</wpt>
<wpt lat="38.453814983" lon="-113.336706042">
	<ele>1589.916748</ele>
	<time>2016-06-02T18:19:31Z</time>
	<name>Prickily poppy RR</name>
	<sym>Red Map Pin</sym>
	<extensions>
		<delorme:objectid>266f711e-1dd2-11b2-9b63-504244454a4a</delorme:objectid>
		<delorme:pnsymbol>1</delorme:pnsymbol>
	</extensions>
</wpt>
<wpt lat="38.513307810" lon="-113.355476499">
	<ele>1471.382935</ele>
	<time>2016-06-02T20:25:42Z</time>
	<name>Prickly popp RR</name>
	<sym>Red Map Pin</sym>
	<extensions>
		<delorme:objectid>2c9f7b38-1dd2-11b2-846b-504244454a4a</delorme:objectid>
		<delorme:pnsymbol>1</delorme:pnsymbol>
	</extensions>
</wpt>
<wpt lat="37.235409379" lon="-113.822026014">
	<ele>1111.211792</ele>
	<time>2016-05-24T23:31:55Z</time>
	<name>Prickly poppy RR</name>
	<sym>Red Map Pin</sym>
	<extensions>
		<delorme:objectid>349300a8-1dd2-11b2-914e-504244454a4a</delorme:objectid>
		<delorme:pnsymbol>1</delorme:pnsymbol>
	</extensions>
</wpt>
<wpt lat="41.746769786" lon="-111.229662538">
	<ele>2077.695068</ele>
	<time>2016-05-19T20:21:05Z</time>
	<name>Purple ASTRAG</name>
	<sym>Red Map Pin</sym>
	<extensions>
		<delorme:objectid>16df2050-1dd2-11b2-9165-504244454a4a</delorme:objectid>
		<delorme:pnsymbol>1</delorme:pnsymbol>
	</extensions>
</wpt>
<wpt lat="41.748243093" lon="-111.242938638">
	<ele>2120.720947</ele>
	<time>2016-05-19T20:56:36Z</time>
	<name>Purple ASTRAG 002</name>
	<sym>Red Map Pin</sym>
	<extensions>
		<delorme:objectid>290fe0ac-1dd2-11b2-8dae-504244454a4a</delorme:objectid>
		<delorme:pnsymbol>1</delorme:pnsymbol>
	</extensions>
</wpt>
<wpt lat="41.378346920" lon="-113.899466753">
	<ele>1385.143799</ele>
	<time>2016-05-16T22:01:28Z</time>
	<name>Purple Fab RR</name>
	<sym>Red Map Pin</sym>
	<extensions>
		<delorme:objectid>2448cb24-1dd2-11b2-8c76-504244454a4a</delorme:objectid>
		<delorme:pnsymbol>1</delorme:pnsymbol>
	</extensions>
</wpt>
<wpt lat="37.016275048" lon="-110.864084005">
	<ele>2715.025391</ele>
	<time>2016-05-09T19:01:00Z</time>
	<name>RANGLA1</name>
	<sym>Red Map Pin</sym>
	<extensions>
		<delorme:objectid>39a08074-690f-453d-ae51-57be691e936b</delorme:objectid>
		<delorme:pnsymbol>1</delorme:pnsymbol>
	</extensions>
</wpt>
<wpt lat="41.926944017" lon="-111.426666021">
	<ele>1962.579590</ele>
	<time>2016-05-09T19:01:00Z</time>
	<name>RANGLA2</name>
	<sym>Red Map Pin</sym>
	<extensions>
		<delorme:objectid>63fd3784-42b6-45b4-826a-b93c07ed75ba</delorme:objectid>
		<delorme:pnsymbol>1</delorme:pnsymbol>
	</extensions>
</wpt>
<wpt lat="41.669796705" lon="-113.818675995">
	<time>2016-06-29T22:19:38Z</time>
	<name>Ribes RR</name>
	<sym>Dark Turquoise Map Pin</sym>
	<extensions>
		<delorme:objectid>2a971a58-1dd2-11b2-8723-504244454a4a</delorme:objectid>
		<delorme:pnsymbol>8</delorme:pnsymbol>
	</extensions>
</wpt>
<wpt lat="41.659468055" lon="-113.753363252">
	<time>2016-07-26T20:31:40Z</time>
	<name>Ribes2 RR</name>
	<sym>Dark Turquoise Map Pin</sym>
	<extensions>
		<delorme:objectid>2b81a0fa-1dd2-11b2-8f91-504244454a4a</delorme:objectid>
		<delorme:pnsymbol>8</delorme:pnsymbol>
	</extensions>
</wpt>
<wpt lat="37.580235839" lon="-113.401631474">
	<time>2016-07-28T01:01:15Z</time>
	<name>Ribes2 RR 002</name>
	<sym>Dark Turquoise Map Pin</sym>
	<extensions>
		<delorme:objectid>1cc6ce8c-1dd2-11b2-8174-504244454a4a</delorme:objectid>
		<delorme:pnsymbol>8</delorme:pnsymbol>
	</extensions>
</wpt>
<wpt lat="41.646507621" lon="-113.729469419">
	<time>2016-07-26T20:18:10Z</time>
	<name>Sage grouse </name>
	<sym>Gray Map Pin</sym>
	<extensions>
		<delorme:objectid>19fc0e1a-1dd2-11b2-8f91-504244454a4a</delorme:objectid>
		<delorme:pnsymbol>11</delorme:pnsymbol>
	</extensions>
</wpt>
<wpt lat="41.661728621" lon="-113.846940875">
	<time>2016-06-29T22:21:46Z</time>
	<name>Salix RR</name>
	<sym>Dark Turquoise Map Pin</sym>
	<extensions>
		<delorme:objectid>2f50c990-1dd2-11b2-8723-504244454a4a</delorme:objectid>
		<delorme:pnsymbol>8</delorme:pnsymbol>
	</extensions>
</wpt>
<wpt lat="41.657608747" lon="-113.852455139">
	<time>2016-06-29T22:22:32Z</time>
	<name>Salix RR 002</name>
	<sym>Dark Turquoise Map Pin</sym>
	<extensions>
		<delorme:objectid>26f332f6-1dd2-11b2-8724-504244454a4a</delorme:objectid>
		<delorme:pnsymbol>8</delorme:pnsymbol>
	</extensions>
</wpt>
<wpt lat="41.666449308" lon="-113.830395460">
	<time>2016-06-29T22:18:05Z</time>
	<name>Sambucus RR</name>
	<sym>Dark Turquoise Map Pin</sym>
	<extensions>
		<delorme:objectid>16ba0d7e-1dd2-11b2-8723-504244454a4a</delorme:objectid>
		<delorme:pnsymbol>8</delorme:pnsymbol>
	</extensions>
</wpt>
<wpt lat="39.955909967" lon="-109.091529489">
	<time>2016-07-20T22:09:24Z</time>
	<name>Showy Mirabilis RR</name>
	<sym>Dark Turquoise Map Pin</sym>
	<extensions>
		<delorme:objectid>2252554c-1dd2-11b2-9999-504244454a4a</delorme:objectid>
		<delorme:pnsymbol>8</delorme:pnsymbol>
	</extensions>
</wpt>
<wpt lat="39.969235182" lon="-109.100096345">
	<time>2016-07-20T22:17:36Z</time>
	<name>Showy Mirabilis RR 002</name>
	<sym>Dark Turquoise Map Pin</sym>
	<extensions>
		<delorme:objectid>2937858a-1dd2-11b2-9999-504244454a4a</delorme:objectid>
		<delorme:pnsymbol>8</delorme:pnsymbol>
	</extensions>
</wpt>
<wpt lat="41.653504968" lon="-113.739285588">
	<time>2016-06-29T21:41:24Z</time>
	<name>Solidago RR</name>
	<sym>Dark Turquoise Map Pin</sym>
	<extensions>
		<delorme:objectid>225b72d0-1dd2-11b2-8721-504244454a4a</delorme:objectid>
		<delorme:pnsymbol>8</delorme:pnsymbol>
	</extensions>
</wpt>
<wpt lat="39.589168668" lon="-112.883046031">
	<ele>1417.275757</ele>
	<time>2016-05-31T23:22:59Z</time>
	<name>SPH Brush-Beryl</name>
	<sym>Red Map Pin</sym>
	<extensions>
		<delorme:objectid>373b5af8-1dd2-11b2-80db-504244454a4a</delorme:objectid>
		<delorme:pnsymbol>1</delorme:pnsymbol>
	</extensions>
</wpt>
<wpt lat="39.594144464" lon="-112.882839799">
	<ele>1435.888306</ele>
	<time>2016-05-31T23:41:31Z</time>
	<name>SPH Brush-Beryl 002</name>
	<sym>Red Map Pin</sym>
	<extensions>
		<delorme:objectid>268a5164-1dd2-11b2-9b10-504244454a4a</delorme:objectid>
		<delorme:pnsymbol>1</delorme:pnsymbol>
	</extensions>
</wpt>
<wpt lat="40.274828434" lon="-112.630416989">
	<ele>1525.173096</ele>
	<time>2016-06-17T22:43:19Z</time>
	<name>SPH Hatch Springs</name>
	<sym>Red Map Pin</sym>
	<extensions>
		<delorme:objectid>1f1f4e52-1dd2-11b2-9001-504244454a4a</delorme:objectid>
		<delorme:pnsymbol>1</delorme:pnsymbol>
	</extensions>
</wpt>
<wpt lat="41.381518722" lon="-113.898112416">
	<ele>1388.339600</ele>
	<time>2016-05-16T22:10:16Z</time>
	<name>SPH Junction</name>
	<sym>Red Map Pin</sym>
	<extensions>
		<delorme:objectid>1d41ab02-1dd2-11b2-9d68-504244454a4a</delorme:objectid>
		<delorme:pnsymbol>1</delorme:pnsymbol>
	</extensions>
</wpt>
<wpt lat="39.205943584" lon="-113.893440843">
	<ele>1532.047241</ele>
	<time>2016-06-01T21:56:15Z</time>
	<name>SPH Knoll Springs</name>
	<sym>Red Map Pin</sym>
	<extensions>
		<delorme:objectid>1caf570c-1dd2-11b2-91a0-504244454a4a</delorme:objectid>
		<delorme:pnsymbol>1</delorme:pnsymbol>
	</extensions>
</wpt>
<wpt lat="38.981364250" lon="-113.807792902">
	<ele>1565.921387</ele>
	<time>2016-06-01T23:46:14Z</time>
	<name>SPH Pine Valley Rd</name>
	<sym>Red Map Pin</sym>
	<extensions>
		<delorme:objectid>1c1d2a08-1dd2-11b2-9cef-504244454a4a</delorme:objectid>
		<delorme:pnsymbol>1</delorme:pnsymbol>
	</extensions>
</wpt>
<wpt lat="38.920304418" lon="-113.721381426">
	<ele>0.000000</ele>
	<time>2016-06-02T00:09:10Z</time>
	<name>SPH Pine Valley Rd 002</name>
	<sym>Red Map Pin</sym>
	<extensions>
		<delorme:objectid>197ddf5e-1dd2-11b2-8ab4-504244454a4a</delorme:objectid>
		<delorme:pnsymbol>1</delorme:pnsymbol>
	</extensions>
</wpt>
<wpt lat="40.807972193" lon="-113.997746110">
	<ele>1462.498413</ele>
	<time>2016-05-16T19:32:47Z</time>
	<name>SPH Sp.</name>
	<sym>Red Map Pin</sym>
	<extensions>
		<delorme:objectid>2fa3ea76-1dd2-11b2-8fb9-504244454a4a</delorme:objectid>
		<delorme:pnsymbol>1</delorme:pnsymbol>
	</extensions>
</wpt>
<wpt lat="40.807696462" lon="-114.001879454">
	<ele>1456.721802</ele>
	<time>2016-05-16T19:54:35Z</time>
	<name>SPH Sp. 002</name>
	<sym>Red Map Pin</sym>
	<extensions>
		<delorme:objectid>2872e1ee-1dd2-11b2-8823-504244454a4a</delorme:objectid>
		<delorme:pnsymbol>1</delorme:pnsymbol>
	</extensions>
</wpt>
<wpt lat="37.293602109" lon="-113.843428969">
	<ele>1326.525757</ele>
	<time>2016-05-11T23:33:56Z</time>
	<name>SPH_ARPU</name>
	<sym>Red Map Pin</sym>
	<extensions>
		<delorme:objectid>35620538-1dd2-11b2-9996-504244454a4a</delorme:objectid>
		<delorme:pnsymbol>1</delorme:pnsymbol>
	</extensions>
</wpt>
<wpt lat="37.293779135" lon="-113.843939662">
	<ele>1334.684204</ele>
	<time>2016-05-11T23:50:31Z</time>
	<name>SPH_ARPU 002</name>
	<sym>Red Map Pin</sym>
	<extensions>
		<delorme:objectid>2666a048-1dd2-11b2-9997-504244454a4a</delorme:objectid>
		<delorme:pnsymbol>1</delorme:pnsymbol>
	</extensions>
</wpt>
<wpt lat="41.669367552" lon="-113.818561316">
	<time>2016-06-29T22:15:15Z</time>
	<name>Spineless Opuntia RR</name>
	<sym>Yellow Map Pin</sym>
	<extensions>
		<delorme:objectid>1d04f388-1dd2-11b2-8722-504244454a4a</delorme:objectid>
		<delorme:pnsymbol>3</delorme:pnsymbol>
	</extensions>
</wpt>
<wpt lat="41.676666021" lon="-113.531944036">
	<ele>1606.604980</ele>
	<time>2016-05-09T19:01:00Z</time>
	<name>SPOAIR1</name>
	<sym>Red Map Pin</sym>
	<extensions>
		<delorme:objectid>7483e137-0a8b-4690-949b-1bc5834a7d26</delorme:objectid>
		<delorme:pnsymbol>1</delorme:pnsymbol>
	</extensions>
</wpt>
<wpt lat="40.551110983" lon="-112.466387987">
	<ele>1427.969238</ele>
	<time>2016-05-09T19:01:00Z</time>
	<name>SPOAIR2</name>
	<sym>Red Map Pin</sym>
	<extensions>
		<delorme:objectid>f72be7e1-722e-43a7-a70b-c0dd1c938e03</delorme:objectid>
		<delorme:pnsymbol>1</delorme:pnsymbol>
	</extensions>
</wpt>
<wpt lat="37.851943970" lon="-112.434999943">
	<ele>2002.452271</ele>
	<time>2016-05-09T19:01:00Z</time>
	<name>SPOAIR3</name>
	<sym>Red Map Pin</sym>
	<extensions>
		<delorme:objectid>834e374e-d327-411b-8047-b99193fd76d3</delorme:objectid>
		<delorme:pnsymbol>1</delorme:pnsymbol>
	</extensions>
</wpt>
<wpt lat="40.066499949" lon="-109.308799982">
	<ele>1332.626465</ele>
	<time>2016-07-18T18:16:30Z</time>
	<name>SPOCRY 1</name>
	<sym>Dark Turquoise Map Pin</sym>
	<extensions>
		<delorme:objectid>25720826-1dd2-11b2-85a4-504244454a4a</delorme:objectid>
		<delorme:pnsymbol>8</delorme:pnsymbol>
	</extensions>
</wpt>
<wpt lat="40.004721999" lon="-109.090000033">
	<ele>1518.041870</ele>
	<time>2016-07-18T18:19:19Z</time>
	<name>SPOCRY 2</name>
	<sym>Dark Turquoise Map Pin</sym>
	<extensions>
		<delorme:objectid>1f58563e-1dd2-11b2-85a5-504244454a4a</delorme:objectid>
		<delorme:pnsymbol>8</delorme:pnsymbol>
	</extensions>
</wpt>
<wpt lat="40.158889055" lon="-109.491667032">
	<ele>1516.978271</ele>
	<time>2016-07-18T18:20:48Z</time>
	<name>SPOCRY 3</name>
	<sym>Dark Turquoise Map Pin</sym>
	<extensions>
		<delorme:objectid>30712504-1dd2-11b2-85a5-504244454a4a</delorme:objectid>
		<delorme:pnsymbol>8</delorme:pnsymbol>
	</extensions>
</wpt>
<wpt lat="41.640882969" lon="-113.711097002">
	<ele>1874.021118</ele>
	<time>2016-05-09T19:01:00Z</time>
	<name>SPOCRY1</name>
	<sym>Red Map Pin</sym>
	<extensions>
		<delorme:objectid>07509ae9-ae8f-4eec-9428-c627354cdc8b</delorme:objectid>
		<delorme:pnsymbol>1</delorme:pnsymbol>
	</extensions>
</wpt>
<wpt lat="40.548055053" lon="-112.418333054">
	<ele>1382.316162</ele>
	<time>2016-05-09T19:01:00Z</time>
	<name>SPOCRY2</name>
	<sym>Red Map Pin</sym>
	<extensions>
		<delorme:objectid>1e4e34fa-2976-485e-be3c-c9e3a564f6d3</delorme:objectid>
		<delorme:pnsymbol>1</delorme:pnsymbol>
	</extensions>
</wpt>
<wpt lat="37.188055038" lon="-112.638610959">
	<ele>1891.347046</ele>
	<time>2016-05-09T19:01:00Z</time>
	<name>SPOCRY3</name>
	<sym>Red Map Pin</sym>
	<extensions>
		<delorme:objectid>520bf579-adb5-4290-b65b-d7e32d72a50b</delorme:objectid>
		<delorme:pnsymbol>1</delorme:pnsymbol>
	</extensions>
</wpt>
<wpt lat="38.458333015" lon="-113.673887968">
	<ele>1640.983032</ele>
	<time>2016-05-09T19:01:00Z</time>
	<name>SPOFLE1</name>
	<sym>Red Map Pin</sym>
	<extensions>
		<delorme:objectid>ae2cf873-1bb5-4e12-8b8e-9ada661623bc</delorme:objectid>
		<delorme:pnsymbol>1</delorme:pnsymbol>
	</extensions>
</wpt>
<wpt lat="37.165555000" lon="-112.566110969">
	<ele>1732.013306</ele>
	<time>2016-05-09T19:01:00Z</time>
	<name>SPOFLE2</name>
	<sym>Red Map Pin</sym>
	<extensions>
		<delorme:objectid>7b44ede7-a17b-4553-91d3-1fe4a905d6f8</delorme:objectid>
		<delorme:pnsymbol>1</delorme:pnsymbol>
	</extensions>
</wpt>
<wpt lat="37.019880056" lon="-113.635830045">
	<ele>813.751038</ele>
	<time>2016-05-09T19:01:00Z</time>
	<name>SPOFLE3</name>
	<sym>Red Map Pin</sym>
	<extensions>
		<delorme:objectid>3952b606-44d7-4d2b-82d9-6a9608faee0a</delorme:objectid>
		<delorme:pnsymbol>1</delorme:pnsymbol>
	</extensions>
</wpt>
<wpt lat="39.245484471" lon="-113.872167587">
	<ele>0.000000</ele>
	<time>2016-06-01T21:48:57Z</time>
	<name>Stanleya pinnata RR</name>
	<sym>Red Map Pin</sym>
	<extensions>
		<delorme:objectid>35ca002a-1dd2-11b2-84af-504244454a4a</delorme:objectid>
		<delorme:pnsymbol>1</delorme:pnsymbol>
	</extensions>
</wpt>
<wpt lat="39.585255265" lon="-112.864365339">
	<ele>1433.945923</ele>
	<time>2016-05-31T23:41:42Z</time>
	<name>STAPIN RR</name>
	<sym>Red Map Pin</sym>
	<extensions>
		<delorme:objectid>2d0c193c-1dd2-11b2-9b10-504244454a4a</delorme:objectid>
		<delorme:pnsymbol>1</delorme:pnsymbol>
	</extensions>
</wpt>
<wpt lat="38.701003432" lon="-113.297181606">
	<ele>1415.398682</ele>
	<time>2016-06-02T21:06:21Z</time>
	<name>STAPIN RR 002</name>
	<sym>Red Map Pin</sym>
	<extensions>
		<delorme:objectid>207d00d2-1dd2-11b2-927a-504244454a4a</delorme:objectid>
		<delorme:pnsymbol>1</delorme:pnsymbol>
	</extensions>
</wpt>
<wpt lat="38.707643390" lon="-113.296578407">
	<ele>1415.018311</ele>
	<time>2016-06-02T15:58:32Z</time>
	<name>STAPIN RR 2</name>
	<sym>Red Map Pin</sym>
	<extensions>
		<delorme:objectid>269449ee-1dd2-11b2-9c5e-504244454a4a</delorme:objectid>
		<delorme:pnsymbol>1</delorme:pnsymbol>
	</extensions>
</wpt>
<wpt lat="40.072353959" lon="-112.780422091">
	<ele>1561.622314</ele>
	<time>2016-05-31T19:46:23Z</time>
	<name>Tetradymia Pony</name>
	<sym>Red Map Pin</sym>
	<extensions>
		<delorme:objectid>2156d712-1dd2-11b2-93ed-504244454a4a</delorme:objectid>
		<delorme:pnsymbol>1</delorme:pnsymbol>
	</extensions>
</wpt>
<wpt lat="39.863966703" lon="-113.056227088">
	<ele>1454.303833</ele>
	<time>2016-05-31T20:27:17Z</time>
	<name>TETSPI Pony</name>
	<sym>Red Map Pin</sym>
	<extensions>
		<delorme:objectid>1dbeaea4-1dd2-11b2-93d0-504244454a4a</delorme:objectid>
		<delorme:pnsymbol>1</delorme:pnsymbol>
	</extensions>
</wpt>
<wpt lat="40.064272761" lon="-109.486044288">
	<time>2016-07-21T21:20:18Z</time>
	<name>Tree grove</name>
	<sym>Red Flag</sym>
	<extensions>
		<delorme:objectid>1ebf831e-1dd2-11b2-9c48-504244454a4a</delorme:objectid>
		<delorme:pnsymbol>13</delorme:pnsymbol>
	</extensions>
</wpt>
<wpt lat="38.780349970" lon="-111.939499974">
	<ele>1989.516602</ele>
	<time>2016-05-09T19:01:00Z</time>
	<name>TRIGYM1</name>
	<sym>Red Map Pin</sym>
	<extensions>
		<delorme:objectid>bf6621b8-29a2-4cb4-9ed2-de0b4dc6323c</delorme:objectid>
		<delorme:pnsymbol>1</delorme:pnsymbol>
	</extensions>
</wpt>
<wpt lat="41.341943979" lon="-111.102777004">
	<ele>2063.721680</ele>
	<time>2016-05-09T19:01:00Z</time>
	<name>TRIGYM2</name>
	<sym>Red Map Pin</sym>
	<extensions>
		<delorme:objectid>6f349547-cc71-40a5-bb5b-30a2fdf172d3</delorme:objectid>
		<delorme:pnsymbol>1</delorme:pnsymbol>
	</extensions>
</wpt>
<wpt lat="41.661826015" lon="-111.078719974">
	<ele>2308.956055</ele>
	<time>2016-05-09T19:01:00Z</time>
	<name>TRIGYM3</name>
	<sym>Red Map Pin</sym>
	<extensions>
		<delorme:objectid>bbb2fde2-2ff0-4633-9b46-1d9ba3382aeb</delorme:objectid>
		<delorme:pnsymbol>1</delorme:pnsymbol>
	</extensions>
</wpt>
<wpt lat="40.463879943" lon="-111.265269995">
	<ele>2502.803223</ele>
	<time>2016-05-09T19:01:00Z</time>
	<name>VICAME1</name>
	<sym>Red Map Pin</sym>
	<extensions>
		<delorme:objectid>21f9f537-567b-4c96-9c57-31b245cd27d1</delorme:objectid>
		<delorme:pnsymbol>1</delorme:pnsymbol>
	</extensions>
</wpt>
<wpt lat="37.491866946" lon="-112.944916964">
	<ele>2606.473877</ele>
	<time>2016-05-09T19:01:00Z</time>
	<name>VICAME2</name>
	<sym>Red Map Pin</sym>
	<extensions>
		<delorme:objectid>a354c2e1-267e-433a-8800-e54e96096042</delorme:objectid>
		<delorme:pnsymbol>1</delorme:pnsymbol>
	</extensions>
</wpt>
<wpt lat="39.965832949" lon="-112.258332968">
	<ele>1870.281250</ele>
	<time>2016-05-09T19:01:00Z</time>
	<name>VICAME3</name>
	<sym>Red Map Pin</sym>
	<extensions>
		<delorme:objectid>c7a945b3-b6d4-4a73-bd7a-487a5b0a7ba4</delorme:objectid>
		<delorme:pnsymbol>1</delorme:pnsymbol>
	</extensions>
</wpt>
<wpt lat="37.020085096" lon="-113.642195344">
	<ele>747.914917</ele>
	<time>2016-05-11T20:12:27Z</time>
	<name>VULOCT LRV</name>
	<sym>Red Map Pin</sym>
	<extensions>
		<delorme:objectid>23be1db2-1dd2-11b2-8c76-504244454a4a</delorme:objectid>
		<delorme:pnsymbol>1</delorme:pnsymbol>
	</extensions>
</wpt>
<wpt lat="41.433333039" lon="-113.683333039">
	<ele>1313.908569</ele>
	<time>2016-05-09T19:01:00Z</time>
	<name>VULOCT1</name>
	<sym>Red Map Pin</sym>
	<extensions>
		<delorme:objectid>535856d7-474e-43a2-b54f-3e3494b24e7f</delorme:objectid>
		<delorme:pnsymbol>1</delorme:pnsymbol>
	</extensions>
</wpt>
<wpt lat="40.522776961" lon="-112.462777019">
	<ele>1491.875732</ele>
	<time>2016-05-09T19:01:00Z</time>
	<name>VULOCT2</name>
	<sym>Red Map Pin</sym>
	<extensions>
		<delorme:objectid>15167580-79fe-4773-902b-37d6707accfe</delorme:objectid>
		<delorme:pnsymbol>1</delorme:pnsymbol>
	</extensions>
</wpt>
<wpt lat="40.368602991" lon="-109.528059959">
	<ele>1776.388062</ele>
	<time>2016-05-09T19:01:00Z</time>
	<name>VULOCT3</name>
	<sym>Red Map Pin</sym>
	<extensions>
		<delorme:objectid>9483808e-a81c-4203-8f22-7c7c232c3c92</delorme:objectid>
		<delorme:pnsymbol>1</delorme:pnsymbol>
	</extensions>
</wpt>
<wpt lat="40.184392810" lon="-109.363577962">
	<time>2016-07-21T20:05:19Z</time>
	<name>Waste water sludge</name>
	<sym>Red Flag</sym>
	<extensions>
		<delorme:objectid>1f6ba98c-1dd2-11b2-9c47-504244454a4a</delorme:objectid>
		<delorme:pnsymbol>13</delorme:pnsymbol>
	</extensions>
</wpt>
<wpt lat="41.576257348" lon="-113.750928283">
	<time>2016-07-11T20:15:30Z</time>
	<name>Wild rye RR</name>
	<sym>Dark Turquoise Map Pin</sym>
	<extensions>
		<delorme:objectid>25f282c6-1dd2-11b2-91b6-504244454a4a</delorme:objectid>
		<delorme:pnsymbol>8</delorme:pnsymbol>
	</extensions>
</wpt>
<wpt lat="41.832188368" lon="-113.814693332">
	<time>2016-06-29T23:05:47Z</time>
	<name>Wild Rye RR </name>
	<sym>Dark Turquoise Map Pin</sym>
	<extensions>
		<delorme:objectid>2ffedc88-1dd2-11b2-8725-504244454a4a</delorme:objectid>
		<delorme:pnsymbol>8</delorme:pnsymbol>
	</extensions>
</wpt>
<wpt lat="40.121111870" lon="-112.527447224">
	<ele>1707.369507</ele>
	<time>2016-05-31T18:10:05Z</time>
	<name>Wpt 001- ELYELY</name>
	<sym>Red Map Pin</sym>
	<extensions>
		<delorme:objectid>17083300-1dd2-11b2-94d8-504244454a4a</delorme:objectid>
		<delorme:pnsymbol>1</delorme:pnsymbol>
	</extensions>
</wpt>
<wpt lat="39.314636588" lon="-112.941334367">
	<ele>1398.943848</ele>
	<time>2016-06-01T16:15:09Z</time>
	<name>Wpt 002</name>
	<sym>Red Map Pin</sym>
	<extensions>
		<delorme:objectid>18e2802c-1dd2-11b2-9b54-504244454a4a</delorme:objectid>
		<delorme:pnsymbol>1</delorme:pnsymbol>
	</extensions>
</wpt>
<wpt lat="40.212789536" lon="-109.247938514">
	<ele>1735.748291</ele>
	<time>2016-06-08T00:12:27Z</time>
	<name>Yellow aster unknown</name>
	<sym>Red Map Pin</sym>
	<extensions>
		<delorme:objectid>241c9bf8-1dd2-11b2-86c1-504244454a4a</delorme:objectid>
		<delorme:pnsymbol>1</delorme:pnsymbol>
	</extensions>
</wpt>
<wpt lat="40.221449137" lon="-109.215580702">
	<time>2016-06-08T00:19:18Z</time>
	<name>Yellow aster unknown 2</name>
	<sym>Red Map Pin</sym>
	<extensions>
		<delorme:objectid>1e8d55c4-1dd2-11b2-86c2-504244454a4a</delorme:objectid>
		<delorme:pnsymbol>1</delorme:pnsymbol>
	</extensions>
</wpt>
<wpt lat="38.498428464" lon="-113.344995499">
	<time>2016-07-01T20:20:17Z</time>
	<name>Yucca sp. RR</name>
	<sym>Dark Turquoise Map Pin</sym>
	<extensions>
		<delorme:objectid>1de218c6-1dd2-11b2-9182-504244454a4a</delorme:objectid>
		<delorme:pnsymbol>8</delorme:pnsymbol>
	</extensions>
</wpt>
</gpx>
